"stop_id","stop_code","stop_name","stop_desc","stop_lat","stop_lon","zone_id","stop_url","location_type","parent_station","stop_timezone","wheelchair_boarding"
"26401","26401","Albury Station","","-36.0840679993","146.924691003","","","1","","","0"
"264086","264086","Albury Station Platform 1","","-36.083941","146.924558","","","0","26401","","0"
"233610","233610","Aberdeen Station","","-32.1671035802","150.892052189","","","1","","","1"
"233621","233621","Aberdeen Station Platform 1","","-32.166969","150.892016","","","0","233610","","0"
"222020","222020","Allawah Station","","-33.9695839058","151.11432998","","","1","","","1"
"2220351","2220351","Allawah Station Platform 1","","-33.96951","151.114268","","","0","222020","","0"
"2220352","2220352","Allawah Station Platform 2","","-33.969553","151.114249","","","0","222020","","0"
"2220353","2220353","Allawah Station Platform 3","","-33.969678","151.114212","","","0","222020","","0"
"2220354","2220354","Allawah Station Platform 4","","-33.969722","151.114197","","","0","222020","","0"
"252710","252710","Albion Park Station","","-34.5626467141","150.798499742","","","1","","","1"
"2527161","2527161","Albion Park Station Platform 1","","-34.562946","150.798688","","","0","252710","","0"
"2527162","2527162","Albion Park Station Platform 2","","-34.563092","150.798981","","","0","252710","","0"
"23501","23501","Armidale Station","","-30.515372995","151.651753003","","","1","","","0"
"235044","235044","Armidale Station Platform 1","","-30.515208","151.651701","","","0","23501","","0"
"220520","220520","Arncliffe Station","","-33.9364561946","151.147299468","","","1","","","0"
"220591","220591","Arncliffe Station Platform 1","","-33.936473","151.147101","","","0","220520","","0"
"220592","220592","Arncliffe Station Platform 2","","-33.936501","151.147222","","","0","220520","","0"
"220593","220593","Arncliffe Station Platform 3","","-33.936573","151.147345","","","0","220520","","0"
"220594","220594","Arncliffe Station Platform 4","","-33.936605","151.147438","","","0","220520","","0"
"206410","206410","Artarmon Station","","-33.8089026435","151.185293878","","","1","","","0"
"206451","206451","Artarmon Station Platform 1","","-33.80857","151.18478","","","0","206410","","0"
"206452","206452","Artarmon Station Platform 2","","-33.808605","151.184744","","","0","206410","","0"
"213110","213110","Ashfield Station","","-33.8875506079","151.125504163","","","1","","","1"
"2131121","2131121","Ashfield Station Platform 1","","-33.887518","151.125785","","","0","213110","","0"
"2131122","2131122","Ashfield Station Platform 2","","-33.887583","151.125758","","","0","213110","","0"
"2131123","2131123","Ashfield Station Platform 3","","-33.887643","151.125733","","","0","213110","","0"
"2131124","2131124","Ashfield Station Platform 4","","-33.887709","151.125694","","","0","213110","","0"
"2131125","2131125","Ashfield Station Platform 5","","-33.887762","151.125544","","","0","213110","","0"
"207730","207730","Asquith Station","","-33.6887699577","151.108025195","","","1","","","0"
"2077291","2077291","Asquith Station Platform 1","","-33.688615","151.108205","","","0","207730","","0"
"2077292","2077292","Asquith Station Platform 2","","-33.688551","151.108101","","","0","207730","","0"
"228920","228920","Adamstown Station","","-32.9337298819","151.720080668","","","1","","","1"
"2289331","2289331","Adamstown Station Platform 1","","-32.933687","151.72023","","","0","228920","","0"
"2289332","2289332","Adamstown Station Platform 2","","-32.933602","151.720183","","","0","228920","","0"
"214410","214410","Auburn Station","","-33.8492696009","151.032866977","","","1","","","1"
"2144241","2144241","Auburn Station Platform 1","","-33.849233","151.032966","","","0","214410","","0"
"2144242","2144242","Auburn Station Platform 2","","-33.849267","151.032919","","","0","214410","","0"
"2144243","2144243","Auburn Station Platform 3","","-33.84934","151.032808","","","0","214410","","0"
"2144244","2144244","Auburn Station Platform 4","","-33.849374","151.032755","","","0","214410","","0"
"251540","251540","Austinmer Station","","-34.3064104571","150.929312771","","","1","","","0"
"2515111","2515111","Austinmer Station Platform 1","","-34.306487","150.929122","","","0","251540","","0"
"2515112","2515112","Austinmer Station Platform 2","","-34.306464","150.92931","","","0","251540","","0"
"228310","228310","Awaba Station","","-33.0129203955","151.541634686","","","1","","","0"
"2283221","2283221","Awaba Station Platform 1","","-33.013027","151.542018","","","0","228310","","0"
"2283222","2283222","Awaba Station Platform 2","","-33.012936","151.542042","","","0","228310","","0"
"211910","211910","Beecroft Station","","-33.7499541654","151.066298171","","","1","","","0"
"211981","211981","Beecroft Station Platform 1","","-33.749434","151.066562","","","0","211910","","0"
"211982","211982","Beecroft Station Platform 2","","-33.749417","151.066491","","","0","211910","","0"
"220710","220710","Bardwell Park Station","","-33.9316166619","151.1248574","","","1","","","0"
"2207271","2207271","Bardwell Park Station Platform 1","","-33.931477","151.125048","","","0","220710","","0"
"2207272","2207272","Bardwell Park Station Platform 2","","-33.931524","151.125077","","","0","220710","","0"
"26211","26211","Bungendore Station","","-35.2557779555","149.446409002","","","1","","","0"
"26215","26215","Bungendore Station Platform 1","","-35.255986","149.446377","","","0","26211","","0"
"208110","208110","Berowra Station","","-33.6236572023","151.152971085","","","1","","","1"
"208171","208171","Berowra Station Platform 1","","-33.623524","151.153278","","","0","208110","","0"
"208172","208172","Berowra Station Platform 2","","-33.623478","151.153244","","","0","208110","","0"
"208173","208173","Berowra Station Platform 3","","-33.62344","151.153079","","","0","208110","","0"
"257420","257420","Bargo Station","","-34.2913649332","150.580209109","","","1","","","0"
"257461","257461","Bargo Station Platform 1","","-34.291052","150.58005","","","0","257420","","0"
"257462","257462","Bargo Station Platform 2","","-34.291023","150.580157","","","0","257420","","0"
"278510","278510","Blackheath Station","","-33.6328810405","150.284344986","","","1","","","0"
"278561","278561","Blackheath Station Platform 1","","-33.633633","150.284409","","","0","278510","","0"
"278562","278562","Blackheath Station Platform 2","","-33.633633","150.284295","","","0","278510","","0"
"214320","214320","Birrong Station","","-33.8932786044","151.024041348","","","1","","","0"
"214381","214381","Birrong Station Platform 1","","-33.89272","151.024269","","","0","214320","","0"
"214382","214382","Birrong Station Platform 2","","-33.892709","151.024222","","","0","214320","","0"
"202210","202210","Bondi Junction Station","","-33.8912022841","151.2483843","","","1","","","1"
"202291","202291","Bondi Junction Station Platform 1","","-33.891258","151.248291","","","0","202210","","0"
"202292","202292","Bondi Junction Station Platform 2","","-33.891143","151.248437","","","0","202210","","0"
"28801","28801","Broken Hill Station","","-31.9592745012","141.466665453","","","1","","","0"
"288076","288076","Broken Hill Station Platform 1","","-31.959445","141.466701","","","0","28801","","0"
"221610","221610","Banksia Station","","-33.9452864513","151.140431561","","","1","","","0"
"2216161","2216161","Banksia Station Platform 1","","-33.945046","151.140393","","","0","221610","","0"
"2216162","2216162","Banksia Station Platform 2","","-33.945089","151.140516","","","0","221610","","0"
"2216163","2216163","Banksia Station Platform 3","","-33.94511","151.140569","","","0","221610","","0"
"2216164","2216164","Banksia Station Platform 4","","-33.94515","151.140679","","","0","221610","","0"
"27991","27991","Blayney Station","","-33.5270399779","149.254516056","","","1","","","0"
"27993","27993","Blayney Station Platform 1","","-33.527099","149.254463","","","0","27991","","0"
"278410","278410","Bullaburra Station","","-33.7236061568","150.414607373","","","1","","","0"
"278421","278421","Bullaburra Station Platform 1","","-33.723433","150.414865","","","0","278410","","0"
"278422","278422","Bullaburra Station Platform 2","","-33.723491","150.414912","","","0","278410","","0"
"251610","251610","Bulli Station","","-34.3344809753","150.914743941","","","1","","","1"
"251671","251671","Bulli Station Platform 1","","-34.33428","150.914757","","","0","251610","","0"
"251672","251672","Bulli Station Platform 2","","-34.334319","150.914865","","","0","251610","","0"
"278620","278620","Bell Station","","-33.5056855444","150.278886098","","","1","","","0"
"278641","278641","Bell Station Platform 1","","-33.505846","150.279039","","","0","278620","","0"
"278642","278642","Bell Station Platform 2","","-33.505867","150.278977","","","0","278620","","0"
"23971","23971","Bellata Station","","-29.9170635723","149.790513263","","","1","","","0"
"23973","23973","Bellata Station Platform 1","","-29.918405","149.790549","","","0","23971","","0"
"253320","253320","Bombo Station","","-34.6580285016","150.853975458","","","1","","","1"
"2533201","2533201","Bombo Station Platform 1","","-34.658615","150.853841","","","0","253320","","0"
"229210","229210","Broadmeadow Station","","-32.9230168894","151.734685955","","","1","","","0"
"229271","229271","Broadmeadow Station Platform 1","","-32.922849","151.734922","","","0","229210","","0"
"229272","229272","Broadmeadow Station Platform 2","","-32.922797","151.734832","","","0","229210","","0"
"229273","229273","Broadmeadow Station Platform 3","","-32.922745","151.734762","","","0","229210","","0"
"251810","251810","Bellambi Station","","-34.363318415","150.909902501","","","1","","","0"
"2518131","2518131","Bellambi Station Platform 1","","-34.362743","150.910058","","","0","251810","","0"
"2518132","2518132","Bellambi Station Platform 2","","-34.362757","150.910113","","","0","251810","","0"
"219210","219210","Belmore Station","","-33.9172179801","151.088733212","","","1","","","1"
"219281","219281","Belmore Station Platform 1","","-33.917167","151.088567","","","0","219210","","0"
"219282","219282","Belmore Station Platform 2","","-33.917238","151.088581","","","0","219210","","0"
"40001","40001","Brisbane Station","","-27.4655709778","153.019515942","","","1","","","0"
"220010","220010","Bankstown Station","","-33.9178645357","151.034686895","","","1","","","1"
"2200501","2200501","Bankstown Station Platform 1","","-33.91782","151.034415","","","0","220010","","0"
"2200502","2200502","Bankstown Station Platform 2","","-33.917904","151.034412","","","0","220010","","0"
"233510","233510","Branxton Station","","-32.6622521545","151.345644925","","","1","","","0"
"233591","233591","Branxton Station Platform 1","","-32.662191","151.345578","","","0","233510","","0"
"233592","233592","Branxton Station Platform 2","","-32.662273","151.345548","","","0","233510","","0"
"23821","23821","Boggabri Station","","-30.7038339982","150.039827001","","","1","","","0"
"23824","23824","Boggabri Station Platform 1","","-30.703589","150.040068","","","0","23821","","0"
"257620","257620","Burradoo Station","","-34.4940191886","150.398338765","","","1","","","0"
"2576351","2576351","Burradoo Station Platform 1","","-34.494123","150.398025","","","0","257620","","0"
"2576352","2576352","Burradoo Station Platform 2","","-34.49411","150.398229","","","0","257620","","0"
"228410","228410","Booragul Station","","-32.971422542","151.604690245","","","1","","","0"
"2284161","2284161","Booragul Station Platform 1","","-32.97162","151.604927","","","0","228410","","0"
"2284162","2284162","Booragul Station Platform 2","","-32.971656","151.604859","","","0","228410","","0"
"257610","257610","Bowral Station","","-34.4781231702","150.416658534","","","1","","","1"
"2576341","2576341","Bowral Station Platform 1","","-34.478192","150.41653","","","0","257610","","0"
"2576342","2576342","Bowral Station Platform 2","","-34.478161","150.416677","","","0","257610","","0"
"214120","214120","Berala Station","","-33.8718356716","151.032441754","","","1","","","0"
"2141301","2141301","Berala Station Platform 1","","-33.871821","151.032424","","","0","214120","","0"
"2141302","2141302","Berala Station Platform 2","","-33.871861","151.032457","","","0","214120","","0"
"253510","253510","Berry Station","","-34.7803326672","150.6969659","","","1","","","1"
"253591","253591","Berry Station Platform 1","","-34.780313","150.696726","","","0","253510","","0"
"232230","232230","Beresfield Station","","-32.7989459854","151.657862686","","","1","","","1"
"2322221","2322221","Beresfield Station Platform 1","","-32.799201","151.658229","","","0","232230","","0"
"2322222","2322222","Beresfield Station Platform 2","","-32.799232","151.658184","","","0","232230","","0"
"279538","279538","Bathurst Station","","-33.4256270264","149.58321606","","","1","","","1"
"2795201","2795201","Bathurst Station Platform 1","","-33.4256971934","149.5831620495","","","0","279538","","0"
"2795202","2795202","Bathurst Station Platform 2","","-33.4256971934","149.5831620495","","","0","279538","","0"
"214810","214810","Blacktown Station","","-33.768229034","150.907510545","","","1","","","1"
"2148531","2148531","Blacktown Station Platform 1","","-33.768154","150.908012","","","0","214810","","0"
"2148532","2148532","Blacktown Station Platform 2","","-33.768191","150.907971","","","0","214810","","0"
"2148533","2148533","Blacktown Station Platform 3","","-33.768273","150.906746","","","0","214810","","0"
"2148534","2148534","Blacktown Station Platform 4","","-33.7685","150.907263","","","0","214810","","0"
"2148535","2148535","Blacktown Station Platform 5","","-33.768552","150.907242","","","0","214810","","0"
"2148536","2148536","Blacktown Station Platform 6","","-33.768651","150.907216","","","0","214810","","0"
"2148537","2148537","Blacktown Station Platform 7","","-33.768695","150.907203","","","0","214810","","0"
"257810","257810","Bundanoon Station","","-34.6561347396","150.298737096","","","1","","","0"
"257861","257861","Bundanoon Station Platform 1","","-34.655938","150.299429","","","0","257810","","0"
"257862","257862","Bundanoon Station Platform 2","","-34.65604","150.299358","","","0","257810","","0"
"257129","257129","Buxton Bus","","-34.254807","150.534265","","","1","","","0"
"257167","257167","Buxton Bus 1","","-34.254583","150.533881","","","0","257129","","0"
"V20030","V20030","Broadmeadows Station","","-37.682854","144.919775","","","1","","","0"
"20030P3","20030P3","Broadmeadows Station Platform 3","","-37.682854","144.919775","","","0","V20030","","0"
"220910","220910","Beverly Hills Station","","-33.9488485689","151.081692204","","","1","","","1"
"2209141","2209141","Beverly Hills Station Platform 1","","-33.949055","151.081012","","","0","220910","","0"
"2209142","2209142","Beverly Hills Station Platform 2","","-33.949114","151.081021","","","0","220910","","0"
"36721","36721","Benalla Station","","-36.5445487824","145.983914819","","","1","","","0"
"20295P1","20295P1","Benalla Station Platform 1","","-36.544561","145.983922","","","0","36721","","0"
"20295P2","20295P2","Benalla Station Platform 2","","-36.544945","145.983798","","","0","36721","","0"
"213410","213410","Burwood Station","","-33.8773146456","151.104762238","","","1","","","1"
"213491","213491","Burwood Station Platform 1","","-33.876962","151.104255","","","0","213410","","0"
"213492","213492","Burwood Station Platform 2","","-33.877062","151.104236","","","0","213410","","0"
"213493","213493","Burwood Station Platform 3","","-33.877143","151.104225","","","0","213410","","0"
"213494","213494","Burwood Station Platform 4","","-33.877219","151.1042","","","0","213410","","0"
"213495","213495","Burwood Station Platform 5","","-33.877291","151.104183","","","0","213410","","0"
"213496","213496","Burwood Station Platform 6","","-33.877376","151.104164","","","0","213410","","0"
"277410","277410","Blaxland Station","","-33.7435765927","150.609595708","","","1","","","1"
"2774111","2774111","Blaxland Station Platform 1","","-33.743701","150.609742","","","0","277410","","0"
"2774112","2774112","Blaxland Station Platform 2","","-33.743743","150.609699","","","0","277410","","0"
"220720","220720","Bexley North Station","","-33.9375660086","151.113397321","","","1","","","0"
"2207281","2207281","Bexley North Station Platform 1","","-33.937478","151.113731","","","0","220720","","0"
"2207282","2207282","Bexley North Station Platform 2","","-33.937528","151.113746","","","0","220720","","0"
"216620","216620","Cabramatta Station","","-33.8948665527","150.938820645","","","1","","","1"
"2166271","2166271","Cabramatta Station Platform 1","","-33.895107","150.938718","","","0","216620","","0"
"2166272","2166272","Cabramatta Station Platform 2","","-33.894697","150.938938","","","0","216620","","0"
"217030","217030","Casula Station","","-33.9498183823","150.911946019","","","1","","","1"
"2170811","2170811","Casula Station Platform 1","","-33.95029","150.911743","","","0","217030","","0"
"2170812","2170812","Casula Station Platform 2","","-33.95017","150.911892","","","0","217030","","0"
"219320","219320","Canterbury Station","","-33.9116721396","151.118213253","","","1","","","0"
"2193111","2193111","Canterbury Station Platform 1","","-33.911975","151.118606","","","0","219320","","0"
"2193112","2193112","Canterbury Station Platform 2","","-33.911902","151.118292","","","0","219320","","0"
"2193110","2193110","Canterbury Station Goods Platform","","-33.911915","151.118653","","","0","219320","","0"
"250850","250850","Coalcliff Station","","-34.2422504333","150.977242743","","","1","","","0"
"2508151","2508151","Coalcliff Station Platform 1","","-34.242205","150.977271","","","0","250850","","0"
"2508152","2508152","Coalcliff Station Platform 2","","-34.242259","150.977313","","","0","250850","","0"
"228430","228430","Cockle Creek Station","","-32.9427099226","151.62338129","","","1","","","0"
"2284171","2284171","Cockle Creek Station Platform 1","","-32.942713","151.62388","","","0","228430","","0"
"2284172","2284172","Cockle Creek Station Platform 2","","-32.942621","151.623855","","","0","228430","","0"
"200020","200020","Circular Quay Station","","-33.861323585","151.210389837","","","1","","","1"
"2000351","2000351","Circular Quay Station Platform 1","","-33.86137","151.210284","","","0","200020","","0"
"2000352","2000352","Circular Quay Station Platform 2","","-33.86126","151.21029","","","0","200020","","0"
"228520","228520","Cardiff Station","","-32.9418238759","151.662980082","","","1","","","1"
"2285361","2285361","Cardiff Station Platform 1","","-32.941513","151.66269","","","0","228520","","0"
"2285362","2285362","Cardiff Station Platform 2","","-32.941482","151.662769","","","0","228520","","0"
"275630","275630","Clarendon Station","","-33.6089524546","150.788562752","","","1","","","0"
"2756431","2756431","Clarendon Station Platform 1","","-33.608552","150.787939","","","0","275630","","0"
"2756432","2756432","Clarendon Station Platform 2","","-33.608673","150.787973","","","0","275630","","0"
"200060","200060","Central Station","","-33.883881632","151.205829312","","","1","","","1"
"2000336","2000336","Central Station Platform 16","","-33.884066","151.206766","","","0","200060","","0"
"2000337","2000337","Central Station Platform 17","","-33.884098","151.206823","","","0","200060","","0"
"2000338","2000338","Central Station Platform 18","","-33.88416","151.206916","","","0","200060","","0"
"2000339","2000339","Central Station Platform 19","","-33.884192","151.206967","","","0","200060","","0"
"2000340","2000340","Central Station Platform 20","","-33.884253","151.207057","","","0","200060","","0"
"2000341","2000341","Central Station Platform 21","","-33.884281","151.20712","","","0","200060","","0"
"2000342","2000342","Central Station Platform 22","","-33.884329","151.207222","","","0","200060","","0"
"2000343","2000343","Central Station Platform 23","","-33.884368","151.207271","","","0","200060","","0"
"2000344","2000344","Central Station Platform 24","","-33.884471","151.207441","","","0","200060","","0"
"2000345","2000345","Central Station Platform 25","","-33.884491","151.207501","","","0","200060","","0"
"24501","24501","Coffs Harbour Station","","-30.3061117105","153.137814499","","","1","","","0"
"2450173","2450173","Coffs Harbour Station Platform 1","","-30.306242","153.137792","","","0","24501","","0"
"211810","211810","Carlingford Station","","-33.7822010751","151.047050676","","","1","","","1"
"2118211","2118211","Carlingford Station Platform 1","","-33.782122","151.047062","","","0","211810","","0"
"216220","216220","Chester Hill Station","","-33.8835434986","150.999445637","","","1","","","0"
"2162191","2162191","Chester Hill Station Platform 1","","-33.883638","151.000178","","","0","216220","","0"
"2162192","2162192","Chester Hill Station Platform 2","","-33.883681","151.000168","","","0","216220","","0"
"211920","211920","Cheltenham Station","","-33.7558683656","151.078851325","","","1","","","0"
"211991","211991","Cheltenham Station Platform 1","","-33.755632","151.078591","","","0","211920","","0"
"211992","211992","Cheltenham Station Platform 2","","-33.75576","151.078607","","","0","211920","","0"
"211962","211962","Cheltenham Station Platform 3","","-33.755880","151.078619","","","0","211920","","0"
"214210","214210","Camellia Station","","-33.8187343461","151.024300946","","","1","","","0"
"2142301","2142301","Camellia Station Platform 1","","-33.818964","151.024201","","","0","214210","","0"
"251530","251530","Coledale Station","","-34.2893891323","150.943335304","","","1","","","0"
"2515121","2515121","Coledale Station Platform 1","","-34.289536","150.943204","","","0","251530","","0"
"2515122","2515122","Coledale Station Platform 2","","-34.289556","150.943283","","","0","251530","","0"
"214230","214230","Clyde Station","","-33.8362817636","151.01748954","","","1","","","0"
"2142311","2142311","Clyde Station Platform 1","","-33.83584","151.017177","","","0","214230","","0"
"2142312","2142312","Clyde Station Platform 2","","-33.835902","151.017124","","","0","214230","","0"
"2142313","2142313","Clyde Station Platform 3","","-33.83598","151.017061","","","0","214230","","0"
"2142314","2142314","Clyde Station Platform 4","","-33.836029","151.017011","","","0","214230","","0"
"2142315","2142315","Clyde Station Platform 5","","-33.836103","151.016927","","","0","214230","","0"
"221810","221810","Carlton Station","","-33.9682663189","151.124336923","","","1","","","1"
"221891","221891","Carlton Station Platform 1","","-33.968157","151.124301","","","0","221810","","0"
"221892","221892","Carlton Station Platform 2","","-33.968226","151.12432","","","0","221810","","0"
"221893","221893","Carlton Station Platform 3","","-33.968335","151.124351","","","0","221810","","0"
"221894","221894","Carlton Station Platform 4","","-33.968392","151.124368","","","0","221810","","0"
"251820","251820","Corrimal Station","","-34.3757269238","150.90497163","","","1","","","1"
"2518141","2518141","Corrimal Station Platform 1","","-34.375529","150.904969","","","0","251820","","0"
"2518142","2518142","Corrimal Station Platform 2","","-34.375479","150.905123","","","0","251820","","0"
"27011","27011","Coolamon Station","","-34.8160450027","147.201858005","","","1","","","0"
"270122","270122","Coolamon Station Platform 1","","-34.816013","147.201645","","","0","27011","","0"
"222610","222610","Como Station","","-34.0042661601","151.067998839","","","1","","","0"
"2226101","2226101","Como Station Platform 1","","-34.004415","151.068043","","","0","222610","","0"
"2226102","2226102","Como Station Platform 2","","-34.004379","151.06812","","","0","222610","","0"
"219410","219410","Campsie Station","","-33.9104811565","151.102630825","","","1","","","1"
"2194111","2194111","Campsie Station Platform 1","","-33.910455","151.103071","","","0","219410","","0"
"2194112","2194112","Campsie Station Platform 2","","-33.910528","151.103083","","","0","219410","","0"
"2194110","2194110","Campsie Station Goods Platform","","-33.910383","151.103054","","","0","219410","","0"
"26041","26041","Canberra Station","","-35.3193370417","149.149291661","","","1","","","0"
"26043","26043","Canberra Station Platform 1","","-35.31911","149.14853","","","0","26041","","0"
"222910","222910","Caringbah Station","","-34.0416103913","151.122747575","","","1","","","1"
"2229221","2229221","Caringbah Station Platform 1","","-34.041611","151.122312","","","0","222910","","0"
"2229222","2229222","Caringbah Station Platform 2","","-34.041548","151.122317","","","0","222910","","0"
"223020","223020","Cronulla Station","","-34.0562517119","151.151542409","","","1","","","1"
"2230211","2230211","Cronulla Station Platform 1","","-34.05553","151.151389","","","0","223020","","0"
"2230212","2230212","Cronulla Station Platform 2","","-34.055947","151.151462","","","0","223020","","0"
"250030","250030","Coniston Station","","-34.4374548931","150.885529169","","","1","","","0"
"2500371","2500371","Coniston Station Platform 1","","-34.437732","150.885209","","","0","250030","","0"
"2500372","2500372","Coniston Station Platform 2","","-34.437797","150.885294","","","0","250030","","0"
"216610","216610","Canley Vale Station","","-33.8867979256","150.943987038","","","1","","","0"
"2166281","2166281","Canley Vale Station Platform 1","","-33.887255","150.943556","","","0","216610","","0"
"2166282","2166282","Canley Vale Station Platform 2","","-33.887338","150.943606","","","0","216610","","0"
"28772","28772","Condobolin Station","","-33.083910003","147.153285","","","1","","","0"
"28779","28779","Condobolin Station Platform 1","","-33.084049","147.152991","","","0","28772","","0"
"213810","213810","Concord West Station","","-33.8487399849","151.085626247","","","1","","","1"
"213898","213898","Concord West Station Platform 1","","-33.848317","151.085695","","","0","213810","","0"
"213881","213881","Concord West Station Platform 2","","-33.848322","151.085656","","","0","213810","","0"
"213882","213882","Concord West Station Platform 3","","-33.848296","151.08553","","","0","213810","","0"
"213883","213883","Concord West Station Platform 4","","-33.8483","151.085474","","","0","213810","","0"
"250520","250520","Cringila Station","","-34.4671755384","150.878422822","","","1","","","0"
"250581","250581","Cringila Station Platform 1","","-34.467172","150.87836","","","0","250520","","0"
"250582","250582","Cringila Station Platform 2","","-34.467124","150.878436","","","0","250520","","0"
"257165","257165","Couridjah Bus","","-34.232824","150.548507","","","1","","","0"
"257166","257166","Couridjah Bus 1","","-34.232538","150.54908","","","0","257165","","0"
"216330","216330","Carramar Station","","-33.8843177862","150.961548622","","","1","","","0"
"2163191","2163191","Carramar Station Platform 1","","-33.884357","150.961271","","","0","216330","","0"
"2163192","2163192","Carramar Station Platform 2","","-33.884416","150.961283","","","0","216330","","0"
"24701","24701","Casino Station","","-28.8606629975","153.038274996","","","1","","","0"
"247055","247055","Casino Station Platform 1","","-28.861006","153.03822","","","0","24701","","0"
"25901","25901","Cootamundra Station","","-34.641037981","148.030649014","","","1","","","0"
"25903","25903","Cootamundra Station Platform 1","","-34.641132","148.030535","","","0","25901","","0"
"256020","256020","Campbelltown Station","","-34.0638354867","150.813928964","","","1","","","1"
"2560691","2560691","Campbelltown Station Platform 1","","-34.063539","150.814347","","","0","256020","","0"
"2560692","2560692","Campbelltown Station Platform 2","","-34.063604","150.814429","","","0","256020","","0"
"2560693","2560693","Campbelltown Station Platform 3","","-34.06371","150.814462","","","0","256020","","0"
"2560694","2560694","Campbelltown Station Platform 4","","-34.064235","150.813886","","","0","256020","","0"
"26601","26601","Culcairn Station","","-35.6661069983","147.038128003","","","1","","","0"
"26603","26603","Culcairn Station Platform 1","","-35.665958","147.038243","","","0","26601","","0"
"206710","206710","Chatswood Station","","-33.7971340586","151.180820713","","","1","","","1"
"2067141","2067141","Chatswood Station Platform 1","","-33.797476","151.181046","","","0","206710","","0"
"2067144","2067144","Chatswood Station Platform 4","","-33.797482","151.180821","","","0","206710","","0"
"208120","208120","Cowan Station","","-33.5931076339","151.171717694","","","1","","","1"
"208181","208181","Cowan Station Platform 1","","-33.593476","151.17182","","","0","208120","","0"
"208182","208182","Cowan Station Platform 2","","-33.593431","151.171722","","","0","208120","","0"
"213210","213210","Croydon Station","","-33.8832342462","151.115488246","","","1","","","0"
"213281","213281","Croydon Station Platform 1","","-33.883053","151.115565","","","0","213210","","0"
"213282","213282","Croydon Station Platform 2","","-33.88309","151.115487","","","0","213210","","0"
"213283","213283","Croydon Station Platform 3","","-33.88317","151.115406","","","0","213210","","0"
"213284","213284","Croydon Station Platform 4","","-33.883202","151.115367","","","0","213210","","0"
"213285","213285","Croydon Station Platform 5","","-33.883308","151.115334","","","0","213210","","0"
"253020","253020","Dapto Station","","-34.4920904371","150.792328257","","","1","","","0"
"2530231","2530231","Dapto Station Platform 1","","-34.492951","150.791669","","","0","253020","","0"
"2530232","2530232","Dapto Station Platform 2","","-34.492809","150.791891","","","0","253020","","0"
"2530233","2530233","Dapto Station Platform 3","","-34.49223","150.792299","","","0","253020","","0"
"28301","28301","Dubbo Station","","-32.2450120344","148.608181998","","","1","","","0"
"2830143","2830143","Dubbo Station Platform 1","","-32.245064","148.608084","","","0","28301","","0"
"226420","226420","Dora Creek Station","","-33.0831874735","151.501162062","","","1","","","0"
"2264191","2264191","Dora Creek Station Platform 1","","-33.083878","151.500954","","","0","226420","","0"
"2264192","2264192","Dora Creek Station Platform 2","","-33.083847","151.500848","","","0","226420","","0"
"220310","220310","Dulwich Hill Station","","-33.9111022345","151.140989389","","","1","","","0"
"220361","220361","Dulwich Hill Station Platform 1","","-33.910986","151.140994","","","0","220310","","0"
"220362","220362","Dulwich Hill Station Platform 2","","-33.911045","151.140974","","","0","220310","","0"
"242010","242010","Dungog Station","","-32.4022900967","151.759539516","","","1","","","0"
"242061","242061","Dungog Station Platform 1","","-32.402433","151.759445","","","0","242010","","0"
"242062","242062","Dungog Station Platform 2","","-32.402404","151.759256","","","0","242010","","0"
"28781","28781","Darnick Station","","-32.8512139953","143.624896006","","","1","","","0"
"28786","28786","Darnick Station Platform 1","","-32.850807","143.625345","","","0","28781","","0"
"211410","211410","Denistone Station","","-33.7999061767","151.087550272","","","1","","","0"
"2114171","2114171","Denistone Station Platform 1","","-33.799582","151.087133","","","0","211410","","0"
"2114172","2114172","Denistone Station Platform 2","","-33.799643","151.087093","","","0","211410","","0"
"2114173","2114173","Denistone Station Platform 3","","-33.799716","151.087014","","","0","211410","","0"
"2114174","2114174","Denistone Station Platform 4","","-33.799767","151.086968","","","0","211410","","0"
"276710","276710","Doonside Station","","-33.7639850225","150.868352057","","","1","","","0"
"2767121","2767121","Doonside Station Platform 1","","-33.763763","150.868924","","","0","276710","","0"
"2767122","2767122","Doonside Station Platform 2","","-33.763845","150.868947","","","0","276710","","0"
"2767123","2767123","Doonside Station Platform 3","","-33.763997","150.868618","","","0","276710","","0"
"2767124","2767124","Doonside Station Platform 4","","-33.764063","150.868643","","","0","276710","","0"
"256910","256910","Douglas Park Station","","-34.1832266515","150.709937814","","","1","","","0"
"2569141","2569141","Douglas Park Station Platform 1","","-34.183214","150.710386","","","0","256910","","0"
"2569142","2569142","Douglas Park Station Platform 2","","-34.183295","150.710384","","","0","256910","","0"
"211720","211720","Dundas Station","","-33.8038939729","151.033196747","","","1","","","1"
"2117201","2117201","Dundas Station Platform 1","","-33.80389","151.033162","","","0","211720","","0"
"202710","202710","Edgecliff Station","","-33.8792514754","151.23616135","","","1","","","0"
"202761","202761","Edgecliff Station Platform 1","","-33.879272","151.235965","","","0","202710","","0"
"202762","202762","Edgecliff Station Platform 2","","-33.879213","151.235979","","","0","202710","","0"
"217426","217426","Edmondson Park Station","","-33.9693","150.8587","","","1","","","1"
"217427","217427","Edmondson Park Station Platform 1","","-33.969305","150.858836","","","0","217426","","0"
"217428","217428","Edmondson Park Station Platform 2","","-33.969383","150.858816","","","0","217426","","0"
"223310","223310","Engadine Station","","-34.0678990057","151.014652906","","","1","","","1"
"2233271","2233271","Engadine Station Platform 1","","-34.067833","151.01466","","","0","223310","","0"
"2233272","2233272","Engadine Station Platform 2","","-34.067882","151.014778","","","0","223310","","0"
"221320","221320","East Hills Station","","-33.9616067679","150.98489728","","","1","","","0"
"2213141","2213141","East Hills Station Platform 1","","-33.96164","150.984788","","","0","221320","","0"
"2213142","2213142","East Hills Station Platform 2","","-33.961689","150.984853","","","0","221320","","0"
"2213143","2213143","East Hills Station Platform 3","","-33.961761","150.984921","","","0","221320","","0"
"232330","232330","East Maitland Station","","-32.7448752254","151.587421299","","","1","","","0"
"2323311","2323311","East Maitland Station Platform 1","","-32.744859","151.587449","","","0","232330","","0"
"2323312","2323312","East Maitland Station Platform 2","","-32.744884","151.587378","","","0","232330","","0"
"24411","24411","Eungai Station","","-30.8490369962","152.900087003","","","1","","","0"
"244131","244131","Eungai Station Platform 1","","-30.84964","152.900157","","","0","24411","","0"
"212110","212110","Epping Station","","-33.7728414535","151.082176647","","","1","","","1"
"2121221","2121221","Epping Station Platform 1","","-33.772949","151.082321","","","0","212110","","0"
"2121222","2121222","Epping Station Platform 2","","-33.772993","151.082179","","","0","212110","","0"
"2121223","2121223","Epping Station Platform 3","","-33.772626","151.081896","","","0","212110","","0"
"275020","275020","Emu Plains Station","","-33.7455677802","150.672286674","","","1","","","1"
"2750491","2750491","Emu Plains Station Platform 1","","-33.745665","150.671438","","","0","275020","","0"
"2750492","2750492","Emu Plains Station Platform 2","","-33.745757","150.671476","","","0","275020","","0"
"275310","275310","East Richmond Station","","-33.6017961363","150.759234021","","","1","","","1"
"2753661","2753661","East Richmond Station Platform 1","","-33.60176","150.759029","","","0","275310","","0"
"204310","204310","Erskineville Station","","-33.9008580996","151.185307617","","","1","","","0"
"204331","204331","Erskineville Station Platform 1","","-33.90025","151.185323","","","0","204310","","0"
"204332","204332","Erskineville Station Platform 2","","-33.900321","151.185426","","","0","204310","","0"
"204333","204333","Erskineville Station Platform 3","","-33.90033","151.185478","","","0","204310","","0"
"204334","204334","Erskineville Station Platform 4","","-33.900341","151.185591","","","0","204310","","0"
"28771","28771","Euabalong West Station","","-33.0545709962","146.393033999","","","1","","","0"
"28778","28778","Euabalong West Station Platform 1","","-33.054682","146.391131","","","0","28771","","0"
"212210","212210","Eastwood Station","","-33.7900214046","151.08223345","","","1","","","1"
"2122231","2122231","Eastwood Station Platform 1","","-33.790148","151.082399","","","0","212210","","0"
"2122232","2122232","Eastwood Station Platform 2","","-33.790146","151.082315","","","0","212210","","0"
"2122233","2122233","Eastwood Station Platform 3","","-33.790144","151.082185","","","0","212210","","0"
"2122234","2122234","Eastwood Station Platform 4","","-33.790143","151.082089","","","0","212210","","0"
"257930","257930","Exeter Station","","-34.6137748677","150.317344669","","","1","","","0"
"257971","257971","Exeter Station Platform 1","","-34.613548","150.317461","","","0","257930","","0"
"257972","257972","Exeter Station Platform 2","","-34.613589","150.317548","","","0","257930","","0"
"277610","277610","Faulconbridge Station","","-33.6964883499","150.535033881","","","1","","","0"
"277661","277661","Faulconbridge Station Platform 1","","-33.696493","150.534981","","","0","277610","","0"
"277662","277662","Faulconbridge Station Platform 2","","-33.696525","150.535047","","","0","277610","","0"
"216510","216510","Fairfield Station","","-33.8723306485","150.957071112","","","1","","","1"
"2165201","2165201","Fairfield Station Platform 1","","-33.872352","150.956968","","","0","216510","","0"
"2165202","2165202","Fairfield Station Platform 2","","-33.872444","150.957037","","","0","216510","","0"
"214020","214020","Flemington Station","","-33.8648222877","151.069766513","","","1","","","0"
"214061","214061","Flemington Station Platform 1","","-33.865027","151.070575","","","0","214020","","0"
"214062","214062","Flemington Station Platform 2","","-33.864933","151.070593","","","0","214020","","0"
"214063","214063","Flemington Station Platform 3","","-33.865019","151.070553","","","0","214020","","0"
"214064","214064","Flemington Station Platform 4","","-33.865055","151.070546","","","0","214020","","0"
"251910","251910","Fairy Meadow Station","","-34.3958341062","150.896170208","","","1","","","0"
"2519131","2519131","Fairy Meadow Station Platform 1","","-34.395283","150.896364","","","0","251910","","0"
"2519132","2519132","Fairy Meadow Station Platform 2","","-34.395317","150.896458","","","0","251910","","0"
"228330","228330","Fassifern Station","","-32.9857881963","151.581250936","","","1","","","1"
"2283231","2283231","Fassifern Station Platform 1","","-32.985493","151.581058","","","0","228330","","0"
"2283232","2283232","Fassifern Station Platform 2","","-32.985552","151.580926","","","0","228330","","0"
"277310","277310","Glenbrook Station","","-33.7690043711","150.620834198","","","1","","","0"
"277371","277371","Glenbrook Station Platform 1","","-33.76908","150.620952","","","0","277310","","0"
"277372","277372","Glenbrook Station Platform 2","","-33.769147","150.620919","","","0","277310","","0"
"24221","24221","Gloucester Station","","-32.0047659971","151.966735003","","","1","","","0"
"242142","242142","Gloucester Station Platform 1","","-32.004626","151.966943","","","0","24221","","0"
"23801","23801","Gunnedah Station","","-30.979375997","150.247996","","","1","","","0"
"238074","238074","Gunnedah Station Platform 1","","-30.979244","150.24786","","","0","23801","","0"
"216710","216710","Glenfield Station","","-33.9723682746","150.89280722","","","1","","","1"
"216761","216761","Glenfield Station Platform 1","","-33.972016","150.893167","","","0","216710","","0"
"216762","216762","Glenfield Station Platform 2","","-33.972049","150.893215","","","0","216710","","0"
"216763","216763","Glenfield Station Platform 3","","-33.972114","150.893298","","","0","216710","","0"
"216765","216765","Glenfield Station Platform 4","","-33.972144","150.893339","","","0","216710","","0"
"258010","258010","Goulburn Station","","-34.7584619126","149.719274414","","","1","","","0"
"258051","258051","Goulburn Station Platform 1","","-34.75815","149.719424","","","0","258010","","0"
"258052","258052","Goulburn Station Platform 2","","-34.757927","149.719752","","","0","258010","","0"
"258053","258053","Goulburn Station Platform 3","","-34.757957","149.719798","","","0","258010","","0"
"216110","216110","Guildford Station","","-33.8545056996","150.984361016","","","1","","","1"
"2161251","2161251","Guildford Station Platform 1","","-33.854291","150.984443","","","0","216110","","0"
"2161252","2161252","Guildford Station Platform 2","","-33.85437","150.984518","","","0","216110","","0"
"25811","25811","Gunning Station","","-34.7796910132","149.261031047","","","1","","","0"
"258128","258128","Gunning Station Platform 1","","-34.779791","149.26126","","","0","25811","","0"
"258125","258125","Gunning Station Platform 2","","-34.779728","149.261197","","","0","25811","","0"
"253420","253420","Gerringong Station","","-34.7448859448","150.817507777","","","1","","","1"
"253481","253481","Gerringong Station Platform 1","","-34.744693","150.817658","","","0","253420","","0"
"225040","225040","Gosford Station","","-33.423882608","151.341710916","","","1","","","1"
"2250791","2250791","Gosford Station Platform 1","","-33.423501","151.341781","","","0","225040","","0"
"2250792","2250792","Gosford Station Platform 2","","-33.423589","151.341616","","","0","225040","","0"
"2250793","2250793","Gosford Station Platform 3","","-33.42357","151.341523","","","0","225040","","0"
"201710","201710","Green Square Station","","-33.9060625915","151.202474466","","","1","","","1"
"2015111","2015111","Green Square Station Platform 1","","-33.906068","151.202532","","","0","201710","","0"
"2015112","2015112","Green Square Station Platform 2","","-33.906111","151.202616","","","0","201710","","0"
"207210","207210","Gordon Station","","-33.7560086417","151.154528026","","","1","","","1"
"207261","207261","Gordon Station Platform 1","","-33.755683","151.154356","","","0","207210","","0"
"207262","207262","Gordon Station Platform 2","","-33.755706","151.154235","","","0","207210","","0"
"207263","207263","Gordon Station Platform 3","","-33.755732","151.154179","","","0","207210","","0"
"28311","28311","Geurie Station","","-32.3982772671","148.830581443","","","1","","","0"
"283111","283111","Geurie Station Platform 1","","-32.397877","148.830493","","","0","28311","","0"
"26801","26801","Griffith Station","","-34.2868199956","146.047734002","","","1","","","0"
"268058","268058","Griffith Station Platform 1","","-34.286771","146.047983","","","0","26801","","0"
"233410","233410","Greta Station","","-32.6866221501","151.384089532","","","1","","","0"
"233461","233461","Greta Station Platform 1","","-32.686743","151.384206","","","0","233410","","0"
"233462","233462","Greta Station Platform 2","","-32.686765","151.3841","","","0","233410","","0"
"214240","214240","Granville Station","","-33.833175985","151.012494676","","","1","","","1"
"2142321","2142321","Granville Station Platform 1","","-33.832823","151.012208","","","0","214240","","0"
"2142322","2142322","Granville Station Platform 2","","-33.832867","151.012169","","","0","214240","","0"
"2142323","2142323","Granville Station Platform 3","","-33.832961","151.012092","","","0","214240","","0"
"2142324","2142324","Granville Station Platform 4","","-33.833017","151.012038","","","0","214240","","0"
"222710","222710","Gymea Station","","-34.0348929402","151.085476628","","","1","","","1"
"2227101","2227101","Gymea Station Platform 1","","-34.034932","151.085435","","","0","222710","","0"
"2227102","2227102","Gymea Station Platform 2","","-34.03485","151.085439","","","0","222710","","0"
"230310","230310","Hamilton Station","","-32.9187134779","151.748872231","","","1","","","1"
"2303151","2303151","Hamilton Station Platform 1","","-32.918573","151.748574","","","0","230310","","0"
"2303152","2303152","Hamilton Station Platform 2","","-32.918347","151.748455","","","0","230310","","0"
"25871","25871","Harden Station","","-34.5533494656","148.371322031","","","1","","","0"
"25875","25875","Harden Station Platform 1","","-34.553589","148.371559","","","0","25871","","0"
"25876","25876","Harden Station Platform 2","","-34.553691","148.371483","","","0","25871","","0"
"207720","207720","Hornsby Station","","-33.7028012445","151.098494013","","","1","","","1"
"2077301","2077301","Hornsby Station Platform 1","","-33.703242","151.098596","","","0","207720","","0"
"2077302","2077302","Hornsby Station Platform 2","","-33.703217","151.09847","","","0","207720","","0"
"2077303","2077303","Hornsby Station Platform 3","","-33.703214","151.098425","","","0","207720","","0"
"2077304","2077304","Hornsby Station Platform 4","","-33.703153","151.098318","","","0","207720","","0"
"2077305","2077305","Hornsby Station Platform 5","","-33.703142","151.09825","","","0","207720","","0"
"223320","223320","Heathcote Station","","-34.0882366141","151.008002409","","","1","","","0"
"2233281","2233281","Heathcote Station Platform 1","","-34.087896","151.008255","","","0","223320","","0"
"2233282","2233282","Heathcote Station Platform 2","","-34.087948","151.008328","","","0","223320","","0"
"242040","242040","Hilldale Station","","-32.5045037848","151.649767834","","","1","","","0"
"242071","242071","Hilldale Station Platform 1","","-32.504566","151.649737","","","0","242040","","0"
"250810","250810","Helensburgh Station","","-34.1768698817","150.994824856","","","1","","","1"
"2508161","2508161","Helensburgh Station Platform 1","","-34.177028","150.994495","","","0","250810","","0"
"2508162","2508162","Helensburgh Station Platform 2","","-34.176954","150.994478","","","0","250810","","0"
"217310","217310","Holsworthy Station","","-33.9632095726","150.956894588","","","1","","","1"
"217391","217391","Holsworthy Station Platform 1","","-33.963165","150.956706","","","0","217310","","0"
"217392","217392","Holsworthy Station Platform 2","","-33.963224","150.956705","","","0","217310","","0"
"214010","214010","Homebush Station","","-33.8667398779","151.086441327","","","1","","","0"
"214072","214072","Homebush Station Platform 2","","-33.866647","151.086455","","","0","214010","","0"
"214073","214073","Homebush Station Platform 3","","-33.86674","151.086407","","","0","214010","","0"
"214074","214074","Homebush Station Platform 4","","-33.86679","151.086382","","","0","214010","","0"
"214075","214075","Homebush Station Platform 5","","-33.866856","151.086272","","","0","214010","","0"
"214076","214076","Homebush Station Platform 6","","-33.866898","151.086242","","","0","214010","","0"
"214077","214077","Homebush Station Platform 7","","-33.867062","151.08634","","","0","214010","","0"
"215010","215010","Harris Park Station","","-33.8232600239","151.007638745","","","1","","","0"
"2150401","2150401","Harris Park Station Platform 1","","-33.823553","151.007697","","","0","215010","","0"
"2150402","2150402","Harris Park Station Platform 2","","-33.823548","151.007658","","","0","215010","","0"
"2150403","2150403","Harris Park Station Platform 3","","-33.823522","151.007535","","","0","215010","","0"
"2150404","2150404","Harris Park Station Platform 4","","-33.823509","151.007481","","","0","215010","","0"
"219310","219310","Hurlstone Park Station","","-33.9104222503","151.132092512","","","1","","","0"
"2193121","2193121","Hurlstone Park Station Platform 1","","-33.910297","151.132225","","","0","219310","","0"
"2193122","2193122","Hurlstone Park Station Platform 2","","-33.91038","151.132293","","","0","219310","","0"
"208310","208310","Hawkesbury River Station","","-33.5467883528","151.226510364","","","1","","","0"
"208341","208341","Hawkesbury River Station Platform 1","","-33.546948","151.22652","","","0","208310","","0"
"208342","208342","Hawkesbury River Station Platform 2","","-33.546904","151.226463","","","0","208310","","0"
"232010","232010","High Street Station","","-32.7414490049","151.56368931","","","1","","","0"
"2320301","2320301","High Street Station Platform 1","","-32.741429","151.563958","","","0","232010","","0"
"2320302","2320302","High Street Station Platform 2","","-32.741487","151.563955","","","0","232010","","0"
"26581","26581","Henty Station","","-35.5178859991","147.035370997","","","1","","","0"
"26583","26583","Henty Station Platform 1","","-35.517624","147.035359","","","0","26581","","0"
"222010","222010","Hurstville Station","","-33.9674535563","151.102757149","","","1","","","1"
"2220361","2220361","Hurstville Station Platform 1","","-33.967361","151.102831","","","0","222010","","0"
"2220362","2220362","Hurstville Station Platform 2","","-33.967468","151.102764","","","0","222010","","0"
"2220363","2220363","Hurstville Station Platform 3","","-33.967517","151.102719","","","0","222010","","0"
"2220364","2220364","Hurstville Station Platform 4","","-33.967616","151.102657","","","0","222010","","0"
"232210","232210","Hexham Station","","-32.8294702879","151.684417076","","","1","","","0"
"2322231","2322231","Hexham Station Platform 1","","-32.828968","151.68422","","","0","232210","","0"
"2322232","2322232","Hexham Station Platform 2","","-32.828979","151.684169","","","0","232210","","0"
"277910","277910","Hazelbrook Station","","-33.7239735131","150.454603767","","","1","","","0"
"277941","277941","Hazelbrook Station Platform 1","","-33.723749","150.454246","","","0","277910","","0"
"277942","277942","Hazelbrook Station Platform 2","","-33.723777","150.454213","","","0","277910","","0"
"256510","256510","Ingleburn Station","","-33.9970796954","150.864920489","","","1","","","0"
"2565651","2565651","Ingleburn Station Platform 1","","-33.997302","150.864699","","","0","256510","","0"
"2565652","2565652","Ingleburn Station Platform 2","","-33.997371","150.864784","","","0","256510","","0"
"28782","28782","Ivanhoe Station","","-32.9143040037","144.311759002","","","1","","","0"
"28785","28785","Ivanhoe Station Platform 1","","-32.914319","144.311657","","","0","28782","","0"
"222620","222620","Jannali Station","","-34.0161286564","151.064664482","","","1","","","0"
"2226111","2226111","Jannali Station Platform 1","","-34.015797","151.064538","","","0","222620","","0"
"2226112","2226112","Jannali Station Platform 2","","-34.016075","151.064711","","","0","222620","","0"
"26631","26631","Junee Station","","-34.8702599603","147.583766044","","","1","","","0"
"266348","266348","Junee Station Platform 1","","-34.870434","147.583848","","","0","26631","","0"
"278020","278020","Katoomba Station","","-33.7115734375","150.311160201","","","1","","","1"
"2780201","2780201","Katoomba Station Platform 1","","-33.711959","150.311584","","","0","278020","","0"
"2780202","2780202","Katoomba Station Platform 2","","-33.712045","150.311537","","","0","278020","","0"
"24391","24391","Kendall Station","","-31.6354040011","152.706288001","","","1","","","0"
"243927","243927","Kendall Station Platform 1","","-31.635274","152.706453","","","0","24391","","0"
"24401","24401","Kempsey Station","","-31.0768519953","152.833041003","","","1","","","0"
"244086","244086","Kempsey Station Platform 1","","-31.077043","152.832885","","","0","24401","","0"
"220810","220810","Kingsgrove Station","","-33.9406360222","151.100483923","","","1","","","1"
"2208141","2208141","Kingsgrove Station Platform 1","","-33.940504","151.100661","","","0","220810","","0"
"2208142","2208142","Kingsgrove Station Platform 2","","-33.940561","151.100689","","","0","220810","","0"
"201110","201110","Kings Cross Station","","-33.8745409123","151.222334239","","","1","","","1"
"201171","201171","Kings Cross Station Platform 1","","-33.874341","151.221858","","","0","201110","","0"
"201172","201172","Kings Cross Station Platform 2","","-33.874293","151.221894","","","0","201110","","0"
"253330","253330","Kiama Station","","-34.6725177846","150.854694705","","","1","","","1"
"2533211","2533211","Kiama Station Platform 1","","-34.672516","150.854614","","","0","253330","","0"
"2533212","2533212","Kiama Station Platform 2","","-34.672562","150.854686","","","0","253330","","0"
"207110","207110","Killara Station","","-33.7654089903","151.161647368","","","1","","","0"
"207191","207191","Killara Station Platform 1","","-33.76558","151.16181","","","0","207110","","0"
"207192","207192","Killara Station Platform 2","","-33.765615","151.161736","","","0","207110","","0"
"253010","253010","Kembla Grange Station","","-34.4702183585","150.817340679","","","1","","","0"
"2526161","2526161","Kembla Grange Station Platform 1","","-34.470141","150.817572","","","0","253010","","0"
"221710","221710","Kogarah Station","","-33.9621493059","151.132641462","","","1","","","1"
"2217191","2217191","Kogarah Station Platform 1","","-33.962702","151.132252","","","0","221710","","0"
"2217192","2217192","Kogarah Station Platform 2","","-33.962566","151.132439","","","0","221710","","0"
"2217193","2217193","Kogarah Station Platform 3","","-33.962582","151.132486","","","0","221710","","0"
"2217194","2217194","Kogarah Station Platform 4","","-33.962806","151.132586","","","0","221710","","0"
"23521","23521","Kootingal Station","","-31.0587310035","151.056154002","","","1","","","0"
"23528","23528","Kootingal Station Platform 1","","-31.058661","151.056323","","","0","23521","","0"
"223230","223230","Kirrawee Station","","-34.0350153507","151.071315329","","","1","","","1"
"2232271","2232271","Kirrawee Station Platform 1","","-34.034995","151.071591","","","0","223230","","0"
"2232272","2232272","Kirrawee Station Platform 2","","-34.034934","151.071587","","","0","223230","","0"
"228910","228910","Kotara Station","","-32.9413962736","151.69849332","","","1","","","0"
"2289341","2289341","Kotara Station Platform 1","","-32.941597","151.697952","","","0","228910","","0"
"2289342","2289342","Kotara Station Platform 2","","-32.941549","151.697928","","","0","228910","","0"
"274720","274720","Kingswood Station","","-33.7582512003","150.719823595","","","1","","","0"
"2747361","2747361","Kingswood Station Platform 1","","-33.758235","150.720028","","","0","274720","","0"
"2747362","2747362","Kingswood Station Platform 2","","-33.758327","150.720008","","","0","274720","","0"
"225620","225620","Koolewong Station","","-33.4669744157","151.318655022","","","1","","","0"
"2256451","2256451","Koolewong Station Platform 1","","-33.466265","151.318519","","","0","225620","","0"
"2256452","2256452","Koolewong Station Platform 2","","-33.466273","151.318416","","","0","225620","","0"
"24741","24741","Kyogle Station","","-28.6201850011","153.001284003","","","1","","","0"
"247426","247426","Kyogle Station Platform 1","","-28.620306","153.001276","","","0","24741","","0"
"219510","219510","Lakemba Station","","-33.9201269921","151.075955497","","","1","","","1"
"2195131","2195131","Lakemba Station Platform 1","","-33.920042","151.075947","","","0","219510","","0"
"2195132","2195132","Lakemba Station Platform 2","","-33.920111","151.075971","","","0","219510","","0"
"275030","275030","Lapstone Station","","-33.773697882","150.642796628","","","1","","","0"
"277381","277381","Lapstone Station Platform 1","","-33.773509","150.642742","","","0","275030","","0"
"2750502","2750502","Lapstone Station Platform 2","","-33.773419","150.642839","","","0","275030","","0"
"278310","278310","Lawson Station","","-33.7191448467","150.429824445","","","1","","","0"
"278331","278331","Lawson Station Platform 1","","-33.719067","150.429858","","","0","278310","","0"
"278332","278332","Lawson Station Platform 2","","-33.719119","150.42989","","","0","278310","","0"
"214110","214110","Lidcombe Station","","-33.8638893463","151.045389501","","","1","","","1"
"2141316","2141316","Lidcombe Station Platform 0","","-33.864169","151.046855","","","0","214110","","0"
"2141311","2141311","Lidcombe Station Platform 1","","-33.863602","151.045066","","","0","214110","","0"
"2141312","2141312","Lidcombe Station Platform 2","","-33.863678","151.044974","","","0","214110","","0"
"2141313","2141313","Lidcombe Station Platform 3","","-33.863742","151.044951","","","0","214110","","0"
"2141314","2141314","Lidcombe Station Platform 4","","-33.863838","151.044898","","","0","214110","","0"
"2141315","2141315","Lidcombe Station Platform 5","","-33.863886","151.044872","","","0","214110","","0"
"207010","207010","Lindfield Station","","-33.7751854637","151.16911057","","","1","","","1"
"2070141","2070141","Lindfield Station Platform 1","","-33.775391","151.169294","","","0","207010","","0"
"2070142","2070142","Lindfield Station Platform 2","","-33.775432","151.169184","","","0","207010","","0"
"2070143","2070143","Lindfield Station Platform 3","","-33.775455","151.169119","","","0","207010","","0"
"217933","217933","Leppington Station","","-33.9544","150.8081","","","1","","","0"
"217934","217934","Leppington Station Platform 1","","-33.954334","150.808237","","","0","217933","","0"
"217935","217935","Leppington Station Platform 2","","-33.954407","150.808214","","","0","217933","","0"
"217936","217936","Leppington Station Platform 3","","-33.954506","150.808197","","","0","217933","","0"
"217937","217937","Leppington Station Platform 4","","-33.954581","150.808169","","","0","217933","","0"
"27051","27051","Leeton Station","","-34.5543280018","146.397658997","","","1","","","0"
"27054","27054","Leeton Station Platform 1","","-34.554525","146.397744","","","0","27051","","0"
"204920","204920","Lewisham Station","","-33.8932785316","151.147272514","","","1","","","0"
"204981","204981","Lewisham Station Platform 1","","-33.893278","151.147459","","","0","204920","","0"
"204982","204982","Lewisham Station Platform 2","","-33.893363","151.147393","","","0","204920","","0"
"223220","223220","Loftus Station","","-34.0451383359","151.051320009","","","1","","","0"
"2232281","2232281","Loftus Station Platform 1","","-34.045169","151.051227","","","0","223220","","0"
"2232282","2232282","Loftus Station Platform 2","","-34.045204","151.051366","","","0","223220","","0"
"277820","277820","Linden Station","","-33.7150023114","150.505264058","","","1","","","0"
"277871","277871","Linden Station Platform 1","","-33.714895","150.505333","","","0","277820","","0"
"277872","277872","Linden Station Platform 2","","-33.714955","150.505325","","","0","277820","","0"
"217020","217020","Liverpool Station","","-33.9251096928","150.927054186","","","1","","","1"
"2170821","2170821","Liverpool Station Platform 1","","-33.924742","150.927285","","","0","217020","","0"
"2170822","2170822","Liverpool Station Platform 2","","-33.924789","150.927394","","","0","217020","","0"
"2170823","2170823","Liverpool Station Platform 3","","-33.924805","150.927424","","","0","217020","","0"
"2170824","2170824","Liverpool Station Platform 4","","-33.9253480922","150.9273084725","","","0","217020","","0"
"232110","232110","Lochinvar Station","","-32.7207200449","151.449086505","","","1","","","1"
"2321161","2321161","Lochinvar Station Platform 1","","-32.720457","151.450273","","","0","232110","","0"
"2321162","2321162","Lochinvar Station Platform 2","","-32.72054","151.450293","","","0","232110","","0"
"278010","278010","Leura Station","","-33.7117218479","150.33027039","","","1","","","0"
"2780211","2780211","Leura Station Platform 1","","-33.712015","150.330838","","","0","278010","","0"
"2780212","2780212","Leura Station Platform 2","","-33.712055","150.330821","","","0","278010","","0"
"225070","225070","Lisarow Station","","-33.3823109858","151.369817112","","","1","","","0"
"2250801","2250801","Lisarow Station Platform 1","","-33.382202","151.370095","","","0","225070","","0"
"2250802","2250802","Lisarow Station Platform 2","","-33.382127","151.370026","","","0","225070","","0"
"250510","250510","Lysaghts Station","","-34.4548431655","150.876094365","","","1","","","0"
"2500381","2500381","Lysaghts Station Platform 1","","-34.454832","150.87604","","","0","250510","","0"
"250592","250592","Lysaghts Station Platform 2","","-34.454465","150.876101","","","0","250510","","0"
"279010","279010","Lithgow Station","","-33.4805009929","150.15744944","","","1","","","1"
"2790141","2790141","Lithgow Station Platform 1","","-33.480557","150.157048","","","0","279010","","0"
"2790142","2790142","Lithgow Station Platform 2","","-33.480618","150.157068","","","0","279010","","0"
"216310","216310","Leightonfield Station","","-33.8815017005","150.98496709","","","1","","","0"
"2163201","2163201","Leightonfield Station Platform 1","","-33.881483","150.985185","","","0","216310","","0"
"2163202","2163202","Leightonfield Station Platform 2","","-33.881541","150.984889","","","0","216310","","0"
"256010","256010","Leumeah Station","","-34.0511704958","150.830050748","","","1","","","1"
"2560701","2560701","Leumeah Station Platform 1","","-34.050713","150.830501","","","0","256010","","0"
"2560702","2560702","Leumeah Station Platform 2","","-34.050798","150.830551","","","0","256010","","0"
"257940","257940","Marulan Station","","-34.7095006229","150.006419158","","","1","","","1"
"257981","257981","Marulan Station Platform 1","","-34.709454","150.006481","","","0","257940","","0"
"257982","257982","Marulan Station Platform 2","","-34.70958","150.005945","","","0","257940","","0"
"256030","256030","Macarthur Station","","-34.0720733184","150.796737103","","","1","","","1"
"2560711","2560711","Macarthur Station Platform 1","","-34.0719","150.797095","","","0","256030","","0"
"2560712","2560712","Macarthur Station Platform 2","","-34.071958","150.797114","","","0","256030","","0"
"2560713","2560713","Macarthur Station Platform 3","","-34.072053","150.79714","","","0","256030","","0"
"202010","202010","Mascot Station","","-33.9231879691","151.187253059","","","1","","","1"
"2020111","2020111","Mascot Station Platform 1","","-33.923179","151.187218","","","0","202010","","0"
"2020112","2020112","Mascot Station Platform 2","","-33.923189","151.187338","","","0","202010","","0"
"201520","201520","Macdonaldtown Station","","-33.8966600168","151.186291644","","","1","","","0"
"2015121","2015121","Macdonaldtown Station Platform 1","","-33.896907","151.185808","","","0","201520","","0"
"2015122","2015122","Macdonaldtown Station Platform 2","","-33.896942","151.185822","","","0","201520","","0"
"211430","211430","Meadowbank Station","","-33.8162381451","151.090060862","","","1","","","1"
"2114181","2114181","Meadowbank Station Platform 1","","-33.8159","151.090168","","","0","211430","","0"
"2114182","2114182","Meadowbank Station Platform 2","","-33.815884","151.090052","","","0","211430","","0"
"23381","23381","Murrurundi Station","","-31.7684290036","150.839451002","","","1","","","0"
"23383","23383","Murrurundi Station Platform 1","","-31.768363","150.839227","","","0","23381","","0"
"232050","232050","Mindaribba Station","","-32.6693231166","151.58431371","","","1","","","0"
"2320321","2320321","Mindaribba Station Platform 1","","-32.668328","151.584473","","","0","232050","","0"
"277010","277010","Mount Druitt Station","","-33.7695423347","150.819798807","","","1","","","1"
"2770591","2770591","Mount Druitt Station Platform 1","","-33.769411","150.819488","","","0","277010","","0"
"2770592","2770592","Mount Druitt Station Platform 2","","-33.769447","150.819483","","","0","277010","","0"
"2770593","2770593","Mount Druitt Station Platform 3","","-33.769542","150.81944","","","0","277010","","0"
"2770594","2770594","Mount Druitt Station Platform 4","","-33.769576","150.819433","","","0","277010","","0"
"278030","278030","Medlow Bath Station","","-33.6738761213","150.280785924","","","1","","","0"
"2780221","2780221","Medlow Bath Station Platform 1","","-33.673691","150.280752","","","0","278030","","0"
"2780222","2780222","Medlow Bath Station Platform 2","","-33.673713","150.280682","","","0","278030","","0"
"232310","232310","Metford Station","","-32.7648757508","151.617868176","","","1","","","1"
"2323321","2323321","Metford Station Platform 1","","-32.765075","151.618129","","","0","232310","","0"
"2323322","2323322","Metford Station Platform 2","","-32.765101","151.618098","","","0","232310","","0"
"256810","256810","Menangle Station","","-34.125201371","150.744430658","","","1","","","0"
"256851","256851","Menangle Station Platform 1","","-34.125177","150.744373","","","0","256810","","0"
"256852","256852","Menangle Station Platform 2","","-34.125488","150.744356","","","0","256810","","0"
"256310","256310","Menangle Park Station","","-34.1037011996","150.74495576","","","1","","","0"
"256321","256321","Menangle Park Station Platform 1","","-34.103669","150.744906","","","0","256310","","0"
"256322","256322","Menangle Park Station Platform 2","","-34.103615","150.745019","","","0","256310","","0"
"256610","256610","Minto Station","","-34.027149716","150.842596731","","","1","","","1"
"2566241","2566241","Minto Station Platform 1","","-34.027351","150.842467","","","0","256610","","0"
"2566242","2566242","Minto Station Platform 2","","-34.027371","150.842589","","","0","256610","","0"
"257510","257510","Mittagong Station","","-34.4527063834","150.447689915","","","1","","","0"
"2575131","2575131","Mittagong Station Platform 1","","-34.452533","150.448303","","","0","257510","","0"
"2575132","2575132","Mittagong Station Platform 2","","-34.452603","150.448323","","","0","257510","","0"
"208010","208010","Mount Kuring-Gai Station","","-33.6530016406","151.136822325","","","1","","","0"
"208041","208041","Mount Kuring-gai Station Platform 1","","-33.653478","151.136892","","","0","208010","","0"
"208042","208042","Mount Kuring-gai Station Platform 2","","-33.653477","151.136818","","","0","208010","","0"
"24471","24471","Macksville Station","","-30.7092830035","152.913134997","","","1","","","0"
"244738","244738","Macksville Station Platform 1","","-30.709479","152.913163","","","0","24471","","0"
"220410","220410","Marrickville Station","","-33.9140903716","151.154032786","","","1","","","0"
"2204121","2204121","Marrickville Station Platform 1","","-33.913836","151.153415","","","0","220410","","0"
"2204122","2204122","Marrickville Station Platform 2","","-33.913931","151.153359","","","0","220410","","0"
"232020","232020","Maitland Station","","-32.7380354255","151.552099901","","","1","","","1"
"2320311","2320311","Maitland Station Platform 1","","-32.73789","151.552126","","","0","232020","","0"
"2320312","2320312","Maitland Station Platform 2","","-32.737919","151.551943","","","0","232020","","0"
"2320313","2320313","Maitland Station Platform 3","","-32.737969","151.551899","","","0","232020","","0"
"2320314","2320314","Maitland Station Platform 4","","-32.738046","151.551819","","","0","232020","","0"
"2320315","2320315","Maitland Station Platform 5","","-32.738072","151.551801","","","0","232020","","0"
"28791","28791","Menindee Station","","-32.3893447449","142.424696985","","","1","","","0"
"28793","28793","Menindee Station Platform 1","","-32.389331","142.424591","","","0","28791","","0"
"200030","200030","Martin Place Station","","-33.8678709087","151.211591161","","","1","","","1"
"2000361","2000361","Martin Place Station Platform 1","","-33.867922","151.211808","","","0","200030","","0"
"2000362","2000362","Martin Place Station Platform 2","","-33.867804","151.211825","","","0","200030","","0"
"206110","206110","Milsons Point Station","","-33.8458927727","151.21182505","","","1","","","1"
"206141","206141","Milsons Point Station Platform 1","","-33.845538","151.21172","","","0","206110","","0"
"206142","206142","Milsons Point Station Platform 2","","-33.845552","151.211659","","","0","206110","","0"
"256410","256410","Macquarie Fields Station","","-33.9848071864","150.878896493","","","1","","","0"
"2564141","2564141","Macquarie Fields Station Platform 1","","-33.984839","150.878781","","","0","256410","","0"
"2564142","2564142","Macquarie Fields Station Platform 2","","-33.98479","150.878987","","","0","256410","","0"
"222810","222810","Miranda Station","","-34.0363547774","151.102853527","","","1","","","1"
"2228131","2228131","Miranda Station Platform 1","","-34.03632","151.102178","","","0","222810","","0"
"2228132","2228132","Miranda Station Platform 2","","-34.036227","151.10219","","","0","222810","","0"
"24001","24001","Moree Station","","-29.4738489993","149.848164","","","1","","","0"
"240024","240024","Moree Station Platform 1","","-29.473375","149.8482","","","0","24001","","0"
"242050","242050","Martins Creek Station","","-32.5586869503","151.618508993","","","1","","","1"
"242081","242081","Martins Creek Station Platform 1","","-32.558634","151.618524","","","0","242050","","0"
"222310","222310","Mortdale Station","","-33.9705866718","151.081288092","","","1","","","1"
"2223291","2223291","Mortdale Station Platform 1","","-33.970969","151.081005","","","0","222310","","0"
"2223292","2223292","Mortdale Station Platform 2","","-33.970996","151.081078","","","0","222310","","0"
"200040","200040","Museum Station","","-33.8756998483","151.21010638","","","1","","","0"
"2000371","2000371","Museum Station Platform 1","","-33.87616","151.209804","","","0","200040","","0"
"2000372","2000372","Museum Station Platform 2","","-33.876164","151.209986","","","0","200040","","0"
"226410","226410","Morisset Station","","-33.109246289","151.487733869","","","1","","","1"
"2264201","2264201","Morisset Station Platform 1","","-33.109026","151.488128","","","0","226410","","0"
"2264202","2264202","Morisset Station Platform 2","","-33.109067","151.487847","","","0","226410","","0"
"207910","207910","Mount Colah Station","","-33.6720220528","151.114492606","","","1","","","0"
"2079101","2079101","Mount Colah Station Platform 1","","-33.671443","151.115002","","","0","207910","","0"
"2079102","2079102","Mount Colah Station Platform 2","","-33.671405","151.114943","","","0","207910","","0"
"278610","278610","Mount Victoria Station","","-33.5881115955","150.256973411","","","1","","","0"
"278651","278651","Mount Victoria Station Platform 1","","-33.588098","150.256976","","","0","278610","","0"
"278652","278652","Mount Victoria Station Platform 2","","-33.588139","150.256862","","","0","278610","","0"
"275610","275610","Mulgrave Station","","-33.6266836695","150.830637019","","","1","","","0"
"2756441","2756441","Mulgrave Station Platform 1","","-33.626519","150.830144","","","0","275610","","0"
"2756442","2756442","Mulgrave Station Platform 2","","-33.626589","150.830123","","","0","275610","","0"
"253310","253310","Minnamurra Station","","-34.625699757","150.85225749","","","1","","","1"
"2533221","2533221","Minnamurra Station Platform 1","","-34.626158","150.852664","","","0","253310","","0"
"233310","233310","MuswellBrook Station","","-32.2674926061","150.890320213","","","1","","","1"
"233321","233321","Muswellbrook Station Platform 1","","-32.267498","150.89041","","","0","233310","","0"
"257710","257710","Moss Vale Station","","-34.5479597683","150.371989716","","","1","","","0"
"2577201","2577201","Moss Vale Station Platform 1","","-34.547856","150.371605","","","0","257710","","0"
"2577202","2577202","Moss Vale Station Platform 2","","-34.548079","150.371932","","","0","257710","","0"
"214820","214820","Marayong Station","","-33.7464511113","150.900199145","","","1","","","1"
"2148541","2148541","Marayong Station Platform 1","","-33.746208","150.900213","","","0","214820","","0"
"2148542","2148542","Marayong Station Platform 2","","-33.746209","150.900154","","","0","214820","","0"
"216010","216010","Merrylands Station","","-33.8363501978","150.992863256","","","1","","","1"
"2160261","2160261","Merrylands Station Platform 1","","-33.836545","150.992598","","","0","216010","","0"
"2160262","2160262","Merrylands Station Platform 2","","-33.83661","150.992663","","","0","216010","","0"
"24481","24481","Nambucca Heads Station","","-30.6291286966","152.977471673","","","1","","","0"
"244835","244835","Nambucca Heads Station Platform 1","","-30.629011","152.977562","","","0","24481","","0"
"23901","23901","Narrabri Station","","-30.3253219989","149.79202","","","1","","","0"
"239029","239029","Narrabri Station Platform 1","","-30.325172","149.792051","","","0","23901","","0"
"27001","27001","Narrandera Station","","-34.7405159569","146.556998503","","","1","","","0"
"27003","27003","Narrandera Station Platform 1","","-34.740605","146.557204","","","0","27001","","0"
"225060","225060","Niagara Park Station","","-33.3833313105","151.35428206","","","1","","","0"
"2250821","2250821","Niagara Park Station Platform 1","","-33.383175","151.3545","","","0","225060","","0"
"2250822","2250822","Niagara Park Station Platform 2","","-33.383137","151.354456","","","0","225060","","0"
"207620","207620","Normanhurst Station","","-33.7207527376","151.097240548","","","1","","","0"
"2076231","2076231","Normanhurst Station Platform 1","","-33.720754","151.097221","","","0","207620","","0"
"2076232","2076232","Normanhurst Station Platform 2","","-33.720672","151.097151","","","0","207620","","0"
"254110","254110","Bomaderry (Nowra) Station","","-34.85377666","150.609808799","","","1","","","1"
"2541191","2541191","Bomaderry (Nowra) Station Platform 1","","-34.853737","150.60991","","","0","254110","","0"
"2250772","2250772","Narara Station","","-33.3947857813","151.344307906","","","1","","","0"
"2250811","2250811","Narara Station Platform 1","","-33.394719","151.344477","","","0","2250772","","0"
"2250812","2250812","Narara Station Platform 2","","-33.394648","151.344402","","","0","2250772","","0"
"220920","220920","Narwee Station","","-33.9475181426","151.069748212","","","1","","","0"
"2209151","2209151","Narwee Station Platform 1","","-33.947612","151.070464","","","0","220920","","0"
"2209152","2209152","Narwee Station Platform 2","","-33.947657","151.070438","","","0","220920","","0"
"213710","213710","North Strathfield Station","","-33.8586880092","151.087986143","","","1","","","0"
"2137171","2137171","North Strathfield Station Platform 1","","-33.859063","151.088194","","","0","213710","","0"
"2137172","2137172","North Strathfield Station Platform 2","","-33.859082","151.088115","","","0","213710","","0"
"2137173","2137173","North Strathfield Station Platform 3","","-33.859116","151.08799","","","0","213710","","0"
"206010","206010","North Sydney Station","","-33.8412085291","151.207410164","","","1","","","1"
"2060101","2060101","North Sydney Station Platform 1","","-33.841171","151.207521","","","0","206010","","0"
"2060102","2060102","North Sydney Station Platform 2","","-33.841215","151.207515","","","0","206010","","0"
"2060103","2060103","North Sydney Station Platform 3","","-33.841201","151.207052","","","0","206010","","0"
"2060104","2060104","North Sydney Station Platform 4","","-33.841241","151.207043","","","0","206010","","0"
"204210","204210","Newtown Station","","-33.8978830072","151.179924712","","","1","","","1"
"204261","204261","Newtown Station Platform 1","","-33.897899","151.179853","","","0","204210","","0"
"204262","204262","Newtown Station Platform 2","","-33.897949","151.179851","","","0","204210","","0"
"250010","250010","North Wollongong Station","","-34.4125932568","150.891349169","","","1","","","1"
"2500391","2500391","North Wollongong Station Platform 1","","-34.412358","150.891328","","","0","250010","","0"
"2500392","2500392","North Wollongong Station Platform 2","","-34.412375","150.891441","","","0","250010","","0"
"229310","229310","Newcastle Interchange Station","","-32.924037","151.759079","","","1","","","1"
"229351","229351","Newcastle Interchange Station Platform 1","","-32.924059","151.758956","","","0","229310","","0"
"229352","229352","Newcastle Interchange Station Platform 2","","-32.923959","151.759016","","","0","229310","","0"
"229354","229354","Newcastle Interchange Station Platform 3","","-32.923937","151.759029","","","0","229310","","0"
"252920","252920","Oak Flats Station","","-34.572230751","150.82090794","","","1","","","1"
"2529201","2529201","Oak Flats Station Platform 1","","-34.571987","150.820357","","","0","252920","","0"
"222320","222320","Oatley Station","","-33.9808451569","151.078965101","","","1","","","0"
"2223301","2223301","Oatley Station Platform 1","","-33.980408","151.078988","","","0","222320","","0"
"2223302","2223302","Oatley Station Platform 2","","-33.980403","151.079049","","","0","222320","","0"
"212710","212710","Olympic Park Station","","-33.8465201324","151.069547249","","","1","","","1"
"2127102","2127102","Olympic Park Station Platform 2","","-33.846625","151.069154","","","0","212710","","0"
"2127103","2127103","Olympic Park Station Platform 3","","-33.846682","151.069183","","","0","212710","","0"
"28001","28001","Orange Station","","-33.2869916681","149.103703109","","","1","","","0"
"280092","280092","Orange Station Platform 1","","-33.286757","149.103702","","","0","28001","","0"
"250830","250830","Otford Station","","-34.2102000425","151.006003921","","","1","","","0"
"2508171","2508171","Otford Station Platform 1","","-34.210693","151.005712","","","0","250830","","0"
"2508172","2508172","Otford Station Platform 2","","-34.210622","151.005979","","","0","250830","","0"
"225810","225810","Ourimbah Station","","-33.3596035261","151.369989223","","","1","","","0"
"2258111","2258111","Ourimbah Station Platform 1","","-33.359685","151.370037","","","0","225810","","0"
"2258112","2258112","Ourimbah Station Platform 2","","-33.359472","151.369865","","","0","225810","","0"
"221110","221110","Padstow Station","","-33.9518920189","151.032557154","","","1","","","1"
"2211141","2211141","Padstow Station Platform 1","","-33.951878","151.032401","","","0","221110","","0"
"2211142","2211142","Padstow Station Platform 2","","-33.95193","151.032397","","","0","221110","","0"
"221310","221310","Panania Station","","-33.9543111213","150.997826061","","","1","","","0"
"2213151","2213151","Panania Station Platform 1","","-33.954268","150.998077","","","0","221310","","0"
"2213152","2213152","Panania Station Platform 2","","-33.954319","150.998087","","","0","221310","","0"
"225030","225030","Point Clare Station","","-33.4457700795","151.328555962","","","1","","","0"
"2250831","2250831","Point Clare Station Platform 1","","-33.446239","151.328467","","","0","225030","","0"
"2250832","2250832","Point Clare Station Platform 2","","-33.44619","151.32837","","","0","225030","","0"
"60041","60041","Perth Station","","-31.943111","115.876925","","","1","","","0"
"60042","60042","Perth Station Platform 1","","-31.943468","115.877116","","","0","60041","","0"
"214530","214530","Pendle Hill Station","","-33.8013478991","150.956342684","","","1","","","0"
"2145641","2145641","Pendle Hill Station Platform 1","","-33.80144","150.956585","","","0","214530","","0"
"2145642","2145642","Pendle Hill Station Platform 2","","-33.801499","150.956526","","","0","214530","","0"
"2145643","2145643","Pendle Hill Station Platform 3","","-33.801566","150.956452","","","0","214530","","0"
"2145644","2145644","Pendle Hill Station Platform 4","","-33.801621","150.956387","","","0","214530","","0"
"275010","275010","Penrith Station","","-33.7500552895","150.696134761","","","1","","","1"
"2750511","2750511","Penrith Station Platform 1","","-33.749959","150.696191","","","0","275010","","0"
"2750512","2750512","Penrith Station Platform 2","","-33.750035","150.696166","","","0","275010","","0"
"2750513","2750513","Penrith Station Platform 3","","-33.750143","150.696123","","","0","275010","","0"
"204910","204910","Petersham Station","","-33.8938593952","151.155156228","","","1","","","0"
"204991","204991","Petersham Station Platform 1","","-33.893874","151.155342","","","0","204910","","0"
"204992","204992","Petersham Station Platform 2","","-33.893959","151.155345","","","0","204910","","0"
"257110","257110","Picton Station","","-34.1791465735","150.61260155","","","1","","","1"
"2571161","2571161","Picton Station Platform 1","","-34.179098","150.612586","","","0","257110","","0"
"2571162","2571162","Picton Station Platform 2","","-34.179288","150.612584","","","0","257110","","0"
"250540","250540","Port Kembla Station","","-34.47724493","150.901922312","","","1","","","1"
"2505111","2505111","Port Kembla Station Platform 1","","-34.477167","150.902631","","","0","250540","","0"
"250530","250530","Port Kembla North Station","","-34.4727666662","150.8880483","","","1","","","0"
"2505101","2505101","Port Kembla North Station Platform 1","","-34.472704","150.887434","","","0","250530","","0"
"28701","28701","Parkes Station","","-33.1421322646","148.173184811","","","1","","","0"
"287054","287054","Parkes Station Platform 1","","-33.142176","148.173047","","","0","28701","","0"
"222210","222210","Penshurst Station","","-33.9661295363","151.089386527","","","1","","","1"
"2222131","2222131","Penshurst Station Platform 1","","-33.966151","151.088938","","","0","222210","","0"
"2222132","2222132","Penshurst Station Platform 2","","-33.966218","151.08895","","","0","222210","","0"
"212020","212020","Pennant Hills Station","","-33.7379386253","151.072529669","","","1","","","1"
"2120201","2120201","Pennant Hills Station Platform 1","","-33.737851","151.072666","","","0","212020","","0"
"2120202","2120202","Pennant Hills Station Platform 2","","-33.737694","151.072663","","","0","212020","","0"
"212042","212042","Pennant Hills Station Platform 3","","-33.737782","151.072484","","","0","212020","","0"
"257920","257920","Penrose Station","","-34.6725510659","150.211755491","","","1","","","0"
"257991","257991","Penrose Station Platform 1","","-34.67236","150.211915","","","0","257920","","0"
"257992","257992","Penrose Station Platform 2","","-34.672421","150.211993","","","0","257920","","0"
"215020","215020","Parramatta Station","","-33.8175792613","151.005535136","","","1","","","1"
"2150411","2150411","Parramatta Station Platform 1","","-33.817302","151.005304","","","0","215020","","0"
"2150412","2150412","Parramatta Station Platform 2","","-33.8174","151.00525","","","0","215020","","0"
"2150413","2150413","Parramatta Station Platform 3","","-33.817463","151.005207","","","0","215020","","0"
"2150414","2150414","Parramatta Station Platform 4","","-33.817551","151.005129","","","0","215020","","0"
"242110","242110","Paterson Station","","-32.602400935","151.614637189","","","1","","","0"
"242141","242141","Paterson Station Platform 1","","-32.602321","151.614731","","","0","242110","","0"
"219610","219610","Punchbowl Station","","-33.9253775169","151.055866993","","","1","","","0"
"2196291","2196291","Punchbowl Station Platform 1","","-33.925382","151.05565","","","0","219610","","0"
"2196292","2196292","Punchbowl Station Platform 2","","-33.925449","151.05565","","","0","219610","","0"
"207310","207310","Pymble Station","","-33.7447288843","151.142137963","","","1","","","0"
"2073161","2073161","Pymble Station Platform 1","","-33.744701","151.142144","","","0","207310","","0"
"2073162","2073162","Pymble Station Platform 2","","-33.744763","151.142119","","","0","207310","","0"
"23431","23431","Quirindi Station","","-31.5053990012","150.681097996","","","1","","","0"
"234313","234313","Quirindi Station Platform 1","","-31.505489","150.681033","","","0","23431","","0"
"276310","276310","Quakers Hill Station","","-33.728024833","150.886724975","","","1","","","1"
"2763171","2763171","Quakers Hill Station Platform 1","","-33.727705","150.886489","","","0","276310","","0"
"2763172","2763172","Quakers Hill Station Platform 2","","-33.727735","150.886437","","","0","276310","","0"
"26201","26201","Queanbeyan Station","","-35.3428901949","149.227651349","","","1","","","0"
"262030","262030","Queanbeyan Station Platform 1","","-35.34288","149.2278","","","0","26201","","0"
"2795999","2795999","Raglan Bus","","-33.422262","149.64726","","","1","","","0"
"279536","279536","Raglan Bus 1","","-33.422262","149.64726","","","0","2795999","","0"
"279535","279535","Raglan Bus 2","","-33.422388","149.647266","","","0","2795999","","0"
"201510","201510","Redfern Station","","-33.8923698959","151.198484708","","","1","","","0"
"2015131","2015131","Redfern Station Platform 1","","-33.891774","151.198349","","","0","201510","","0"
"2015132","2015132","Redfern Station Platform 2","","-33.891854","151.19843","","","0","201510","","0"
"2015133","2015133","Redfern Station Platform 3","","-33.89188","151.198452","","","0","201510","","0"
"2015134","2015134","Redfern Station Platform 4","","-33.891922","151.198559","","","0","201510","","0"
"2015135","2015135","Redfern Station Platform 5","","-33.891954","151.198592","","","0","201510","","0"
"2015136","2015136","Redfern Station Platform 6","","-33.891972","151.198746","","","0","201510","","0"
"2015137","2015137","Redfern Station Platform 7","","-33.892003","151.198772","","","0","201510","","0"
"2015138","2015138","Redfern Station Platform 8","","-33.892065","151.198885","","","0","201510","","0"
"2015139","2015139","Redfern Station Platform 9","","-33.892099","151.198923","","","0","201510","","0"
"2015140","2015140","Redfern Station Platform 10","","-33.892152","151.199035","","","0","201510","","0"
"2015141","2015141","Redfern Station Platform 11","","-33.8924","151.199233","","","0","201510","","0"
"2015142","2015142","Redfern Station Platform 12","","-33.892419","151.199284","","","0","201510","","0"
"2790128","2790128","Rydal Station","","-33.4835650033","150.031811997","","","1","","","0"
"2790154","2790154","Rydal Station Platform 1","","-33.483946","150.031767","","","0","2790128","","0"
"213820","213820","Rhodes Station","","-33.8305303567","151.08703226","","","1","","","1"
"213891","213891","Rhodes Station Platform 1","","-33.830822","151.087144","","","0","213820","","0"
"213892","213892","Rhodes Station Platform 2","","-33.830803","151.08699","","","0","213820","","0"
"213893","213893","Rhodes Station Platform 3","","-33.830778","151.086938","","","0","213820","","0"
"275320","275320","Richmond Station","","-33.5991116405","150.753211003","","","1","","","1"
"2753671","2753671","Richmond Station Platform 1","","-33.598855","150.752775","","","0","275320","","0"
"2753672","2753672","Richmond Station Platform 2","","-33.598894","150.75254","","","0","275320","","0"
"276510","276510","Riverstone Station","","-33.6790433699","150.860267864","","","1","","","0"
"2765291","2765291","Riverstone Station Platform 1","","-33.679091","150.860337","","","0","276510","","0"
"2765292","2765292","Riverstone Station Platform 2","","-33.679403","150.860403","","","0","276510","","0"
"211610","211610","Rydalmere Station","","-33.8100730137","151.029097703","","","1","","","0"
"211671","211671","Rydalmere Station Platform 1","","-33.810057","151.029192","","","0","211610","","0"
"221620","221620","Rockdale Station","","-33.9518802725","151.136861613","","","1","","","1"
"2216172","2216172","Rockdale Station Platform 2","","-33.952068","151.136653","","","0","221620","","0"
"2216173","2216173","Rockdale Station Platform 3","","-33.952104","151.136745","","","0","221620","","0"
"2216174","2216174","Rockdale Station Platform 4","","-33.952145","151.136849","","","0","221620","","0"
"2216175","2216175","Rockdale Station Platform 5","","-33.952173","151.136957","","","0","221620","","0"
"600037","600037","Brisbane (Roma St) Station Platform 2","","-27.465776","153.019475","","","0","40001","","0"
"214310","214310","Regents Park Station","","-33.8829888939","151.024187469","","","1","","","1"
"214391","214391","Regents Park Station Platform 1","","-33.883057","151.024081","","","0","214310","","0"
"214392","214392","Regents Park Station Platform 2","","-33.883086","151.024149","","","0","214310","","0"
"214220","214220","Rosehill Station","","-33.8233461228","151.022068892","","","1","","","0"
"2142331","2142331","Rosehill Station Platform 1","","-33.822972","151.022136","","","0","214220","","0"
"2142332","2142332","Rosehill Station Platform 2","","-33.822984","151.022025","","","0","214220","","0"
"206910","206910","Roseville Station","","-33.7842202564","151.177265981","","","1","","","0"
"2069131","2069131","Roseville Station Platform 1","","-33.784323","151.177534","","","0","206910","","0"
"2069132","2069132","Roseville Station Platform 2","","-33.784371","151.177494","","","0","206910","","0"
"2577146","2577146","Robertson Bus","","-34.589305","150.597767","","","1","","","0"
"2577143","2577143","Robertson Bus 1","","-34.589443","150.597539","","","0","2577146","","0"
"276610","276610","Rooty Hill Station","","-33.7715117275","150.845018733","","","1","","","0"
"2766141","2766141","Rooty Hill Station Platform 1","","-33.771543","150.84459","","","0","276610","","0"
"2766142","2766142","Rooty Hill Station Platform 2","","-33.771607","150.844617","","","0","276610","","0"
"2766143","2766143","Rooty Hill Station Platform 3","","-33.771656","150.844793","","","0","276610","","0"
"2766144","2766144","Rooty Hill Station Platform 4","","-33.771705","150.844823","","","0","276610","","0"
"221210","221210","Revesby Station","","-33.9524600343","151.014838369","","","1","","","1"
"2212161","2212161","Revesby Station Platform 1","","-33.952418","151.015083","","","0","221210","","0"
"2212162","2212162","Revesby Station Platform 2","","-33.952482","151.015084","","","0","221210","","0"
"2212163","2212163","Revesby Station Platform 3","","-33.952574","151.015078","","","0","221210","","0"
"2212164","2212164","Revesby Station Platform 4","","-33.952492","151.014557","","","0","221210","","0"
"221010","221010","Riverwood Station","","-33.9515354072","151.052035296","","","1","","","1"
"2210321","2210321","Riverwood Station Platform 1","","-33.951456","151.052218","","","0","221010","","0"
"2210322","2210322","Riverwood Station Platform 2","","-33.951508","151.052243","","","0","221010","","0"
"230430","230430","Sandgate Station","","-32.8718965217","151.702604736","","","1","","","0"
"2304291","2304291","Sandgate Station Platform 1","","-32.872321","151.702854","","","0","230430","","0"
"2304292","2304292","Sandgate Station Platform 2","","-32.872364","151.702766","","","0","230430","","0"
"2577209","2577209","Ranelagh House Bus","","-34.5909","150.6106","","","1","","","0"
"2577901","2577901","Ranelagh House Station Platform 1","","-34.590923","150.610559","","","0","2577209","","0"
"233710","233710","Scone Station","","-32.0469408939","150.866902291","","","1","","","1"
"233731","233731","Scone Station Platform 1","","-32.046766","150.866958","","","0","233710","","0"
"276220","276220","Schofields Station","","-33.704452","150.874138","","","1","","","1"
"2762121","2762121","Schofields Station Platform 1","","-33.704668","150.87394","","","0","276220","","0"
"2762122","2762122","Schofields Station Platform 2","","-33.704688","150.873866","","","0","276220","","0"
"251510","251510","Scarborough Station","","-34.2649865514","150.965790871","","","1","","","0"
"2515131","2515131","Scarborough Station Platform 1","","-34.265373","150.965438","","","0","251510","","0"
"2515132","2515132","Scarborough Station Platform 2","","-34.26542","150.965551","","","0","251510","","0"
"2000321","2000321","Central Station Platform 1","","-33.882701","151.205857","","","0","200060","","0"
"2000322","2000322","Central Station Platform 2","","-33.882751","151.20601","","","0","200060","","0"
"2000323","2000323","Central Station Platform 3","","-33.882771","151.206062","","","0","200060","","0"
"2000324","2000324","Central Station Platform 4","","-33.883321","151.205831","","","0","200060","","0"
"2000325","2000325","Central Station Platform 5","","-33.883347","151.205875","","","0","200060","","0"
"2000326","2000326","Central Station Platform 6","","-33.883414","151.206006","","","0","200060","","0"
"2000327","2000327","Central Station Platform 7","","-33.883445","151.206061","","","0","200060","","0"
"2000328","2000328","Central Station Platform 8","","-33.883515","151.206182","","","0","200060","","0"
"2000329","2000329","Central Station Platform 9","","-33.883553","151.206242","","","0","200060","","0"
"2000330","2000330","Central Station Platform 10","","-33.883619","151.206374","","","0","200060","","0"
"2000331","2000331","Central Station Platform 11","","-33.883651","151.206432","","","0","200060","","0"
"2000332","2000332","Central Station Platform 12","","-33.883716","151.206529","","","0","200060","","0"
"2000333","2000333","Central Station Platform 13","","-33.883756","151.206606","","","0","200060","","0"
"2000334","2000334","Central Station Platform 14","","-33.883811","151.206699","","","0","200060","","0"
"2000335","2000335","Central Station Platform 15","","-33.883834","151.20678","","","0","200060","","0"
"202020","202020","Domestic Airport Station","","-33.9336596293","151.180785679","","","1","","","1"
"202091","202091","Domestic Station Platform 1","","-33.933579","151.180776","","","0","202020","","0"
"202092","202092","Domestic Station Platform 2","","-33.933684","151.180747","","","0","202020","","0"
"V17191","V17191","Seymour Station","","-37.024361","145.138515","","","1","","","0"
"17191P1","17191P1","Seymour Station Platform 1","","-37.024361","145.138515","","","0","V17191","","0"
"216210","216210","Sefton Station","","-33.8852361649","151.011283338","","","1","","","1"
"2162201","2162201","Sefton Station Platform 1","","-33.88523","151.011559","","","0","216210","","0"
"2162202","2162202","Sefton Station Platform 2","","-33.885295","151.011547","","","0","216210","","0"
"233010","233010","Singleton Station","","-32.5717704718","151.165170745","","","1","","","1"
"2330181","2330181","Singleton Station Platform 1","","-32.572042","151.165617","","","0","233010","","0"
"2529218","2529218","Shellharbour Junction Station","","-34.5912","150.8448","","","1","","","1"
"2529219","2529219","Shellharbour Junction Station Platform 1","","-34.591361","150.844828","","","0","2529218","","0"
"2529220","2529220","Shellharbour Junction Station Platform 2","","-34.591331","150.844697","","","0","2529218","","0"
"252910","252910","Dunmore Station","","-34.6059132924","150.840140256","","","1","","","0"
"2529191","2529191","Dunmore Station Platform 1","","-34.606378","150.839907","","","0","252910","","0"
"2529192","2529192","Dunmore Station Platform 2","","-34.606071","150.840108","","","0","252910","","0"
"V22180","V22180","Southern Cross Station","","-37.817614","144.95295","","","1","","","0"
"22180P1","22180P1","Southern Cross Station Platform 1","","-37.817614","144.95295","","","0","V22180","","0"
"22180P2","22180P2","Southern Cross Station Platform 2","","-37.818311","144.95344","","","0","V22180","","0"
"202030","202030","International Airport Station","","-33.9349882286","151.165891276","","","1","","","1"
"2020101","2020101","International Station Platform 1","","-33.934925","151.165848","","","0","202030","","0"
"2020102","2020102","International Station Platform 2","","-33.935011","151.165803","","","0","202030","","0"
"213010","213010","Summer Hill Station","","-33.8905607663","151.139445147","","","1","","","1"
"213051","213051","Summer Hill Station Platform 1","","-33.890345","151.138972","","","0","213010","","0"
"213052","213052","Summer Hill Station Platform 2","","-33.890377","151.138954","","","0","213010","","0"
"213053","213053","Summer Hill Station Platform 3","","-33.890474","151.138905","","","0","213010","","0"
"204810","204810","Stanmore Station","","-33.8945488499","151.164009338","","","1","","","0"
"204831","204831","Stanmore Station Platform 1","","-33.894449","151.164038","","","0","204810","","0"
"204832","204832","Stanmore Station Platform 2","","-33.89453","151.164053","","","0","204810","","0"
"204833","204833","Stanmore Station Platform 3","","-33.89464","151.164044","","","0","204810","","0"
"24601","24601","Grafton Station","","-29.7039050005","152.941691996","","","1","","","0"
"2460143","2460143","Grafton Station Platform 1","","-29.703505","152.941765","","","0","24601","","0"
"277720","277720","Springwood Station","","-33.698841604","150.563979903","","","1","","","1"
"2777191","2777191","Springwood Station Platform 1","","-33.698974","150.563696","","","0","277720","","0"
"2777192","2777192","Springwood Station Platform 2","","-33.699023","150.563773","","","0","277720","","0"
"223210","223210","Sutherland Station","","-34.0317869151","151.05719008","","","1","","","1"
"2232291","2232291","Sutherland Station Platform 1","","-34.03166","151.057178","","","0","223210","","0"
"2232292","2232292","Sutherland Station Platform 2","","-34.031694","151.057285","","","0","223210","","0"
"2232293","2232293","Sutherland Station Platform 3","","-34.031731","151.057365","","","0","223210","","0"
"200050","200050","St James Station","","-33.8706974192","151.211837375","","","1","","","1"
"2000381","2000381","St James Station Platform 1","","-33.870669","151.21173","","","0","200050","","0"
"2000382","2000382","St James Station Platform 2","","-33.870686","151.211939","","","0","200050","","0"
"206520","206520","St Leonards Station","","-33.8223888849","151.194126811","","","1","","","1"
"2065152","2065152","St Leonards Station Platform 2","","-33.821982","151.194193","","","0","206520","","0"
"2065153","2065153","St Leonards Station Platform 3","","-33.821995","151.194025","","","0","206520","","0"
"276010","276010","St Marys Station","","-33.7622558528","150.77602901","","","1","","","1"
"2760301","2760301","St Marys Station Platform 1","","-33.762049","150.775491","","","0","276010","","0"
"2760302","2760302","St Marys Station Platform 2","","-33.762116","150.77548","","","0","276010","","0"
"2760303","2760303","St Marys Station Platform 3","","-33.762217","150.775438","","","0","276010","","0"
"2760304","2760304","St Marys Station Platform 4","","-33.762287","150.775417","","","0","276010","","0"
"204410","204410","St Peters Station","","-33.9073952028","151.180267452","","","1","","","0"
"204461","204461","St Peters Station Platform 1","","-33.907221","151.180489","","","0","204410","","0"
"204462","204462","St Peters Station Platform 2","","-33.907297","151.180515","","","0","204410","","0"
"204463","204463","St Peters Station Platform 3","","-33.907389","151.180546","","","0","204410","","0"
"204464","204464","St Peters Station Platform 4","","-33.907484","151.180574","","","0","204410","","0"
"213510","213510","Strathfield Station","","-33.8718104968","151.094427077","","","1","","","1"
"2135231","2135231","Strathfield Station Platform 1","","-33.87131","151.094217","","","0","213510","","0"
"2135232","2135232","Strathfield Station Platform 2","","-33.871341","151.094158","","","0","213510","","0"
"2135233","2135233","Strathfield Station Platform 3","","-33.871406","151.094071","","","0","213510","","0"
"2135234","2135234","Strathfield Station Platform 4","","-33.871446","151.094011","","","0","213510","","0"
"2135235","2135235","Strathfield Station Platform 5","","-33.871532","151.093933","","","0","213510","","0"
"2135236","2135236","Strathfield Station Platform 6","","-33.871567","151.093874","","","0","213510","","0"
"2135237","2135237","Strathfield Station Platform 7","","-33.87163","151.09379","","","0","213510","","0"
"2135238","2135238","Strathfield Station Platform 8","","-33.871663","151.093726","","","0","213510","","0"
"28201","28201","Stuart Town Station","","-32.8011920171","149.078320003","","","1","","","0"
"282024","282024","Stuart Town Station Platform 1","","-32.801493","149.078534","","","0","28201","","0"
"214710","214710","Seven Hills Station","","-33.774430434","150.936513359","","","1","","","1"
"2147421","2147421","Seven Hills Station Platform 1","","-33.774225","150.935976","","","0","214710","","0"
"2147422","2147422","Seven Hills Station Platform 2","","-33.774286","150.935963","","","0","214710","","0"
"2147423","2147423","Seven Hills Station Platform 3","","-33.774429","150.936312","","","0","214710","","0"
"2147424","2147424","Seven Hills Station Platform 4","","-33.774497","150.936292","","","0","214710","","0"
"250840","250840","Stanwell Park Station","","-34.2265864217","150.980938038","","","1","","","0"
"2508181","2508181","Stanwell Park Station Platform 1","","-34.226364","150.981033","","","0","250840","","0"
"2508182","2508182","Stanwell Park Station Platform 2","","-34.226394","150.981142","","","0","250840","","0"
"24521","24521","Sawtell Station","","-30.3594286324","153.09741934","","","1","","","0"
"245240","245240","Sawtell Station Platform 1","","-30.359391","153.097613","","","0","24521","","0"
"204420","204420","Sydenham Station","","-33.9143731989","151.166645609","","","1","","","1"
"204471","204471","Sydenham Station Platform 1","","-33.914135","151.166548","","","0","204420","","0"
"204472","204472","Sydenham Station Platform 2","","-33.914096","151.166854","","","0","204420","","0"
"204473","204473","Sydenham Station Platform 3","","-33.914163","151.166904","","","0","204420","","0"
"204474","204474","Sydenham Station Platform 4","","-33.914228","151.167017","","","0","204420","","0"
"204475","204475","Sydenham Station Platform 5","","-33.914278","151.167059","","","0","204420","","0"
"204476","204476","Sydenham Station Platform 6","","-33.914331","151.167159","","","0","204420","","0"
"257310","257310","Tahmoor Station","","-34.2236766672","150.589910563","","","1","","","0"
"257361","257361","Tahmoor Station Platform 1","","-34.223381","150.590028","","","0","257310","","0"
"257362","257362","Tahmoor Station Platform 2","","-34.223412","150.590135","","","0","257310","","0"
"257950","257950","Tallong Station","","-34.7183305951","150.086505741","","","1","","","0"
"2579101","2579101","Tallong Station Platform 1","","-34.718286","150.086355","","","0","257950","","0"
"2579102","2579102","Tallong Station Platform 2","","-34.718375","150.08635","","","0","257950","","0"
"234012","234012","Tamworth Station","","-31.0872620012","150.930847997","","","1","","","0"
"2340108","2340108","Tamworth Station Platform 1","","-31.08749","150.930858","","","0","234012","","0"
"27871","27871","Tarana Station","","-33.5241070016","149.907594003","","","1","","","0"
"27874","27874","Tarana Station Platform 1","","-33.52429","149.90838","","","0","27871","","0"
"225020","225020","Tascott Station","","-33.451356945","151.318056032","","","1","","","0"
"2250841","2250841","Tascott Station Platform 1","","-33.450903","151.31872","","","0","225020","","0"
"2250842","2250842","Tascott Station Platform 2","","-33.450905","151.318553","","","0","225020","","0"
"211710","211710","Telopea Station","","-33.7936744517","151.04156298","","","1","","","0"
"2117191","2117191","Telopea Station Platform 1","","-33.793911","151.041422","","","0","211710","","0"
"228420","228420","Teralba Station","","-32.9627124493","151.603457811","","","1","","","0"
"2284181","2284181","Teralba Station Platform 1","","-32.962451","151.603693","","","0","228420","","0"
"2284182","2284182","Teralba Station Platform 2","","-32.962388","151.603643","","","0","228420","","0"
"214610","214610","Toongabbie Station","","-33.7872629962","150.951437323","","","1","","","0"
"2146111","2146111","Toongabbie Station Platform 1","","-33.787298","150.951589","","","0","214610","","0"
"2146112","2146112","Toongabbie Station Platform 2","","-33.787313","150.95151","","","0","214610","","0"
"2146113","2146113","Toongabbie Station Platform 3","","-33.787332","150.951381","","","0","214610","","0"
"2146114","2146114","Toongabbie Station Platform 4","","-33.787352","150.951312","","","0","214610","","0"
"258011","258011","Tarago Station","","-35.0699610036","149.651365","","","1","","","0"
"258089","258089","Tarago Station Platform 1","","-35.07","149.65133","","","0","258011","","0"
"251550","251550","Thirroul Station","","-34.3184243988","150.918652366","","","1","","","1"
"2515141","2515141","Thirroul Station Platform 1","","-34.318051","150.918831","","","0","251550","","0"
"2515142","2515142","Thirroul Station Platform 2","","-34.318072","150.918982","","","0","251550","","0"
"2515143","2515143","Thirroul Station Platform 3","","-34.318094","150.919035","","","0","251550","","0"
"200070","200070","Town Hall Station","","-33.8735963257","151.206899293","","","1","","","1"
"2000391","2000391","Town Hall Station Platform 1","","-33.87365","151.206994","","","0","200070","","0"
"2000392","2000392","Town Hall Station Platform 2","","-33.873621","151.206931","","","0","200070","","0"
"2000393","2000393","Town Hall Station Platform 3","","-33.873674","151.206812","","","0","200070","","0"
"2000394","2000394","Town Hall Station Platform 4","","-33.873592","151.206999","","","0","200070","","0"
"2000395","2000395","Town Hall Station Platform 5","","-33.873662","151.206874","","","0","200070","","0"
"2000396","2000396","Town Hall Station Platform 6","","-33.873653","151.2068","","","0","200070","","0"
"257225","257225","Thirlmere Bus","","-34.203677","150.572495","","","1","","","0"
"257214","257214","Thirlmere Bus 1","","-34.203896","150.572563","","","0","257225","","0"
"212010","212010","Thornleigh Station","","-33.7318711955","151.078280974","","","1","","","0"
"2120211","2120211","Thornleigh Station Platform 1","","-33.731936","151.078347","","","0","212010","","0"
"2120212","2120212","Thornleigh Station Platform 2","","-33.731891","151.07825","","","0","212010","","0"
"2120213","2120213","Thornleigh Station Platform 3","","-33.731829","151.078165","","","0","212010","","0"
"232030","232030","Telarah Station","","-32.7239102569","151.539634763","","","1","","","1"
"2320331","2320331","Telarah Station Platform 1","","-32.723431","151.539778","","","0","232030","","0"
"204430","204430","Tempe Station","","-33.9245047291","151.156507285","","","1","","","0"
"204481","204481","Tempe Station Platform 1","","-33.924048","151.156388","","","0","204430","","0"
"204482","204482","Tempe Station Platform 2","","-33.924115","151.156507","","","0","204430","","0"
"204483","204483","Tempe Station Platform 3","","-33.924129","151.156588","","","0","204430","","0"
"204484","204484","Tempe Station Platform 4","","-33.924146","151.156707","","","0","204430","","0"
"232240","232240","Thornton Station","","-32.7835946374","151.639830835","","","1","","","1"
"2322251","2322251","Thornton Station Platform 1","","-32.783585","151.639918","","","0","232240","","0"
"2322252","2322252","Thornton Station Platform 2","","-32.783662","151.639853","","","0","232240","","0"
"24301","24301","Taree Station","","-31.9064370002","152.456963005","","","1","","","0"
"243067","243067","Taree Station Platform 1","","-31.906416","152.457304","","","0","24301","","0"
"26551","26551","The Rock Station","","-35.2717640037","147.118301003","","","1","","","0"
"26553","26553","The Rock Station Platform 1","","-35.271749","147.118541","","","0","26551","","0"
"220530","220530","Turrella Station","","-33.9299529576","151.139909016","","","1","","","0"
"2205101","2205101","Turrella Station Platform 1","","-33.929833","151.140164","","","0","220530","","0"
"2205102","2205102","Turrella Station Platform 2","","-33.929873","151.14018","","","0","220530","","0"
"232220","232220","Tarro Station","","-32.8093092214","151.669941549","","","1","","","0"
"2322241","2322241","Tarro Station Platform 1","","-32.809007","151.669677","","","0","232220","","0"
"2322242","2322242","Tarro Station Platform 2","","-32.809067","151.669596","","","0","232220","","0"
"225910","225910","Tuggerah Station","","-33.3080864837","151.420152642","","","1","","","1"
"2259911","2259911","Tuggerah Station Platform 1","","-33.3077","151.420277","","","0","225910","","0"
"2259912","2259912","Tuggerah Station Platform 2","","-33.307661","151.420184","","","0","225910","","0"
"207410","207410","Turramurra Station","","-33.7321822059","151.128281842","","","1","","","1"
"2074181","2074181","Turramurra Station Platform 1","","-33.732453","151.128569","","","0","207410","","0"
"2074182","2074182","Turramurra Station Platform 2","","-33.732503","151.128511","","","0","207410","","0"
"251830","251830","Towradgi Station","","-34.384686325","150.901238888","","","1","","","0"
"2518151","2518151","Towradgi Station Platform 1","","-34.384322","150.901336","","","0","251830","","0"
"2518152","2518152","Towradgi Station Platform 2","","-34.384313","150.901466","","","0","251830","","0"
"252610","252610","Unanderra Station","","-34.4544287823","150.846262892","","","1","","","0"
"2526171","2526171","Unanderra Station Platform 1","","-34.454809","150.845867","","","0","252610","","0"
"2526172","2526172","Unanderra Station Platform 2","","-34.454859","150.845938","","","0","252610","","0"
"24551","24551","Urunga Station","","-30.4996560002","153.018677997","","","1","","","0"
"245526","245526","Urunga Station Platform 1","","-30.499124","153.018668","","","0","24551","","0"
"235813","235813","Uralla Station","","-30.6440760007","151.505202006","","","1","","","0"
"235824","235824","Uralla Station Platform 1","","-30.644192","151.504942","","","0","235813","","0"
"277710","277710","Valley Heights Station","","-33.7044657278","150.583813038","","","1","","","0"
"2777201","2777201","Valley Heights Station Platform 1","","-33.704381","150.583774","","","0","277710","","0"
"2777202","2777202","Valley Heights Station Platform 2","","-33.704403","150.583725","","","0","277710","","0"
"216320","216320","Villawood Station","","-33.8809016751","150.976047927","","","1","","","0"
"2163211","2163211","Villawood Station Platform 1","","-33.880825","150.97663","","","0","216320","","0"
"2163212","2163212","Villawood Station Platform 2","","-33.880876","150.976633","","","0","216320","","0"
"276520","276520","Vineyard Station","","-33.6505041515","150.851245754","","","1","","","0"
"2765301","2765301","Vineyard Station Platform 1","","-33.650457","150.851184","","","0","276520","","0"
"232320","232320","Victoria Street Station","","-32.7509577484","151.593825879","","","1","","","0"
"2323331","2323331","Victoria Street Station Platform 1","","-32.750931","151.593884","","","0","232320","","0"
"2323332","2323332","Victoria Street Station Platform 2","","-32.75098","151.593853","","","0","232320","","0"
"207610","207610","Wahroonga Station","","-33.7174291976","151.116892277","","","1","","","0"
"2076241","2076241","Wahroonga Station Platform 1","","-33.717851","151.117385","","","0","207610","","0"
"2076242","2076242","Wahroonga Station Platform 2","","-33.717881","151.117352","","","0","207610","","0"
"207710","207710","Waitara Station","","-33.7099932648","151.104341133","","","1","","","0"
"2077311","2077311","Waitara Station Platform 1","","-33.710242","151.104781","","","0","207710","","0"
"2077312","2077312","Waitara Station Platform 2","","-33.710282","151.104742","","","0","207710","","0"
"206020","206020","Waverton Station","","-33.8382452525","151.197855547","","","1","","","1"
"2060111","2060111","Waverton Station Platform 1","","-33.837808","151.197526","","","0","206020","","0"
"2060112","2060112","Waverton Station Platform 2","","-33.837838","151.197423","","","0","206020","","0"
"251520","251520","Wombarra Station","","-34.2759329354","150.953145001","","","1","","","0"
"2515151","2515151","Wombarra Station Platform 1","","-34.275495","150.953457","","","0","251520","","0"
"2515152","2515152","Wombarra Station Platform 2","","-34.275532","150.953565","","","0","251520","","0"
"220510","220510","Wolli Creek Station","","-33.9285468328","151.154113182","","","1","","","1"
"2205111","2205111","Wolli Creek Station Platform 1","","-33.928538","151.1545","","","0","220510","","0"
"2205112","2205112","Wolli Creek Station Platform 2","","-33.928626","151.154463","","","0","220510","","0"
"2205113","2205113","Wolli Creek Station Platform 3","","-33.928023","151.153793","","","0","220510","","0"
"2205114","2205114","Wolli Creek Station Platform 4","","-33.928067","151.153852","","","0","220510","","0"
"23411","23411","Werris Creek Station","","-31.3501390002","150.646464002","","","1","","","0"
"23418","23418","Werris Creek Station Platform 1","","-31.349475","150.6465","","","0","23411","","0"
"23419","23419","Werris Creek Station Platform 2","","-31.349525","150.64627","","","0","23411","","0"
"225010","225010","Wondabyne Station","","-33.4921353608","151.257010783","","","1","","","0"
"2256461","2256461","Wondabyne Station Platform 1","","-33.492215","151.257005","","","0","225010","","0"
"2256462","2256462","Wondabyne Station Platform 2","","-33.492187","151.256923","","","0","225010","","0"
"277810","277810","Woodford Station","","-33.7354492815","150.481917441","","","1","","","0"
"277881","277881","Woodford Station Platform 1","","-33.735617","150.481871","","","0","277810","","0"
"277882","277882","Woodford Station Platform 2","","-33.735655","150.481886","","","0","277810","","0"
"223330","223330","Waterfall Station","","-34.1343852228","150.994511503","","","1","","","0"
"2233291","2233291","Waterfall Station Platform 1","","-34.134733","150.994483","","","0","223330","","0"
"2233292","2233292","Waterfall Station Platform 2","","-34.134727","150.994559","","","0","223330","","0"
"278210","278210","Wentworth Falls Station","","-33.7094719208","150.376311429","","","1","","","0"
"2782181","2782181","Wentworth Falls Station Platform 1","","-33.709742","150.376442","","","0","278210","","0"
"2782182","2782182","Wentworth Falls Station Platform 2","","-33.70975","150.376347","","","0","278210","","0"
"26501","26501","Wagga Wagga Station","","-35.1204179991","147.368449999","","","1","","","0"
"2650135","2650135","Wagga Wagga Station Platform 1","","-35.120314","147.368186","","","0","26501","","0"
"24291","24291","Wingham Station","","-31.868090002","152.367635996","","","1","","","0"
"2429102","2429102","Wingham Station Platform 1","","-31.868014","152.367283","","","0","24291","","0"
"257910","257910","Wingello Station","","-34.6921801787","150.158385368","","","1","","","0"
"2579111","2579111","Wingello Station Platform 1","","-34.692123","150.158408","","","0","257910","","0"
"2579112","2579112","Wingello Station Platform 2","","-34.692198","150.158424","","","0","257910","","0"
"275620","275620","Windsor Station","","-33.6139276709","150.811408003","","","1","","","1"
"2756451","2756451","Windsor Station Platform 1","","-33.613719","150.811103","","","0","275620","","0"
"242030","242030","Wirragulla Station","","-32.4617735009","151.743457021","","","1","","","0"
"2420101","2420101","Wirragulla Station Platform 1","","-32.462998","151.742406","","","0","242030","","0"
"217010","217010","Warwick Farm Station","","-33.9134499609","150.935036365","","","1","","","1"
"2170831","2170831","Warwick Farm Station Platform 1","","-33.912991","150.935101","","","0","217010","","0"
"2170832","2170832","Warwick Farm Station Platform 2","","-33.913116","150.935189","","","0","217010","","0"
"242020","242020","Wallarobba Station","","-32.4961399646","151.695679776","","","1","","","1"
"242091","242091","Wallarobba Station Platform 1","","-32.496138","151.695655","","","0","242020","","0"
"23541","23541","Walcha Road Station","","-30.9409980039","151.402170004","","","1","","","0"
"23544","23544","Walcha Road Station Platform 1","","-30.941141","151.402281","","","0","23541","","0"
"206510","206510","Wollstonecraft Station","","-33.8317948735","151.191895006","","","1","","","0"
"2065161","2065161","Wollstonecraft Station Platform 1","","-33.832002","151.191838","","","0","206510","","0"
"2065162","2065162","Wollstonecraft Station Platform 2","","-33.832028","151.191722","","","0","206510","","0"
"223010","223010","Woolooware Station","","-34.0477180921","151.143995336","","","1","","","1"
"2230221","2230221","Woolooware Station Platform 1","","-34.047656","151.143902","","","0","223010","","0"
"2230222","2230222","Woolooware Station Platform 2","","-34.047602","151.143933","","","0","223010","","0"
"219520","219520","Wiley Park Station","","-33.9230085448","151.067276248","","","1","","","0"
"2195141","2195141","Wiley Park Station Platform 1","","-33.922846","151.067515","","","0","219520","","0"
"2195142","2195142","Wiley Park Station Platform 2","","-33.922934","151.067547","","","0","219520","","0"
"214510","214510","Westmead Station","","-33.8085293689","150.98801145","","","1","","","1"
"2145661","2145661","Westmead Station Platform 1","","-33.808314","150.987738","","","0","214510","","0"
"2145662","2145662","Westmead Station Platform 2","","-33.808357","150.987721","","","0","214510","","0"
"2145663","2145663","Westmead Station Platform 3","","-33.808594","150.988105","","","0","214510","","0"
"2145664","2145664","Westmead Station Platform 4","","-33.808634","150.988088","","","0","214510","","0"
"2845999","2845999","Wallerawang Bus","","-33.411104","150.066497","","","1","","","0"
"284515","284515","Wallerawang Bus 1","","-33.411104","150.066497","","","0","2845999","","0"
"284514","284514","Wallerawang Bus 2","","-33.411307","150.0652","","","0","2845999","","0"
"250020","250020","Wollongong Station","","-34.427016169","150.88824305","","","1","","","1"
"2500401","2500401","Wollongong Station Platform 1","","-34.427233","150.888075","","","0","250020","","0"
"2500402","2500402","Wollongong Station Platform 2","","-34.426948","150.888274","","","0","250020","","0"
"2500403","2500403","Wollongong Station Platform 3","","-34.42778","150.887912","","","0","250020","","0"
"2500404","2500404","Wollongong Station Platform 4","","-34.427847","150.888113","","","0","250020","","0"
"251710","251710","Woonona Station","","-34.3502304682","150.914953779","","","1","","","1"
"251781","251781","Woonona Station Platform 1","","-34.349549","150.915145","","","0","251710","","0"
"251782","251782","Woonona Station Platform 2","","-34.349566","150.91524","","","0","251710","","0"
"225610","225610","Woy Woy Station","","-33.4851124911","151.32362386","","","1","","","1"
"2256471","2256471","Woy Woy Station Platform 1","","-33.485181","151.323638","","","0","225610","","0"
"2256472","2256472","Woy Woy Station Platform 2","","-33.485167","151.323574","","","0","225610","","0"
"211420","211420","West Ryde Station","","-33.8071721307","151.09022893","","","1","","","1"
"2114191","2114191","West Ryde Station Platform 1","","-33.807175","151.0903","","","0","211420","","0"
"2114192","2114192","West Ryde Station Platform 2","","-33.807165","151.090251","","","0","211420","","0"
"2114193","2114193","West Ryde Station Platform 3","","-33.807129","151.090095","","","0","211420","","0"
"225930","225930","Warnervale Station","","-33.2475593068","151.448562292","","","1","","","0"
"2259921","2259921","Warnervale Station Platform 1","","-33.247426","151.448809","","","0","225930","","0"
"2259922","2259922","Warnervale Station Platform 2","","-33.247363","151.448744","","","0","225930","","0"
"274710","274710","Werrington Station","","-33.7592923009","150.758339734","","","1","","","1"
"2747371","2747371","Werrington Station Platform 1","","-33.759118","150.757765","","","0","274710","","0"
"2747372","2747372","Werrington Station Platform 2","","-33.759218","150.757656","","","0","274710","","0"
"230420","230420","Warabrook Station","","-32.8870546406","151.709890233","","","1","","","1"
"2304301","2304301","Warabrook Station Platform 1","","-32.887323","151.71012","","","0","230420","","0"
"2304302","2304302","Warabrook Station Platform 2","","-32.887337","151.710084","","","0","230420","","0"
"277420","277420","Warrimoo Station","","-33.7211964368","150.601979239","","","1","","","0"
"2774121","2774121","Warrimoo Station Platform 1","","-33.721329","150.602606","","","0","277420","","0"
"2774122","2774122","Warrimoo Station Platform 2","","-33.721392","150.602579","","","0","277420","","0"
"207420","207420","Warrawee Station","","-33.7242854623","151.121756755","","","1","","","0"
"2074191","2074191","Warrawee Station Platform 1","","-33.724286","151.121811","","","0","207420","","0"
"2074192","2074192","Warrawee Station Platform 2","","-33.724313","151.121734","","","0","207420","","0"
"23391","23391","Willow Tree Station","","-31.6500649959","150.726123005","","","1","","","0"
"23393","23393","Willow Tree Station Platform 1","","-31.650185","150.726107","","","0","23391","","0"
"230410","230410","Waratah Station","","-32.902765554","151.73167082","","","1","","","0"
"2304311","2304311","Waratah Station Platform 1","","-32.902251","151.731164","","","0","230410","","0"
"2304312","2304312","Waratah Station Platform 2","","-32.902341","151.731102","","","0","230410","","0"
"28202","28202","Wellington Station","","-32.5540359674","148.946832044","","","1","","","0"
"282023","282023","Wellington Station Platform 1","","-32.553879","148.946711","","","0","28202","","0"
"24461","24461","Wauchope Station","","-31.4559089957","152.736526004","","","1","","","0"
"244648","244648","Wauchope Station Platform 1","","-31.456092","152.736537","","","0","24461","","0"
"214520","214520","Wentworthville Station","","-33.8071929536","150.972637553","","","1","","","0"
"2145651","2145651","Wentworthville Station Platform 1","","-33.807029","150.972578","","","0","214520","","0"
"2145652","2145652","Wentworthville Station Platform 2","","-33.807094","150.972538","","","0","214520","","0"
"2145653","2145653","Wentworthville Station Platform 3","","-33.807177","150.97246","","","0","214520","","0"
"2145654","2145654","Wentworthville Station Platform 4","","-33.807229","150.972427","","","0","214520","","0"
"36771","36771","Wangaratta Station","","-36.3549980657","146.316812062","","","1","","","0"
"20356P1","20356P1","Wangaratta Station Platform 1","","-36.354998","146.316827","","","0","36771","","0"
"20356P2","20356P2","Wangaratta Station Platform 2","","-36.355158","146.317092","","","0","36771","","0"
"225940","225940","Wyee Station","","-33.1804478942","151.487119837","","","1","","","0"
"2259931","2259931","Wyee Station Platform 1","","-33.180172","151.487134","","","0","225940","","0"
"2259932","2259932","Wyee Station Platform 2","","-33.180183","151.487055","","","0","225940","","0"
"225920","225920","Wyong Station","","-33.2854792278","151.425256215","","","1","","","1"
"2259941","2259941","Wyong Station Platform 1","","-33.285469","151.425348","","","0","225920","","0"
"2259942","2259942","Wyong Station Platform 2","","-33.285471","151.425295","","","0","225920","","0"
"2259943","2259943","Wyong Station Platform 3","","-33.285522","151.425165","","","0","225920","","0"
"200080","200080","Wynyard Station","","-33.8658979945","151.205789333","","","1","","","1"
"2000403","2000403","Wynyard Station Platform 3","","-33.865956","151.205747","","","0","200080","","0"
"2000404","2000404","Wynyard Station Platform 4","","-33.865965","151.205667","","","0","200080","","0"
"2000405","2000405","Wynyard Station Platform 5","","-33.865872","151.205917","","","0","200080","","0"
"2000406","2000406","Wynyard Station Platform 6","","-33.865879","151.205849","","","0","200080","","0"
"219910","219910","Yagoona Station","","-33.9065533731","151.024151882","","","1","","","0"
"2199171","2199171","Yagoona Station Platform 1","","-33.907075","151.024561","","","0","219910","","0"
"2199172","2199172","Yagoona Station Platform 2","","-33.907097","151.024512","","","0","219910","","0"
"25821","25821","Yass Junction Station","","-34.808994957","148.91538695","","","1","","","0"
"258234","258234","Yass Junction Station Platform 1","","-34.808847","148.915253","","","0","25821","","0"
"258235","258235","Yass Junction Station Platform 2","","-34.808847","148.915253","","","0","25821","","0"
"216120","216120","Yennora Station","","-33.8647184018","150.971007349","","","1","","","0"
"2161261","2161261","Yennora Station Platform 1","","-33.864682","150.970988","","","0","216120","","0"
"2161262","2161262","Yennora Station Platform 2","","-33.864761","150.971032","","","0","216120","","0"
"257540","257540","Yerrinbool Station","","-34.3717400589","150.543495689","","","1","","","0"
"2575141","2575141","Yerrinbool Station Platform 1","","-34.371719","150.543456","","","0","257540","","0"
"2575142","2575142","Yerrinbool Station Platform 2","","-34.37174","150.543554","","","0","257540","","0"
"278630","278630","Zig Zag Station","","-33.4718863935","150.202128706","","","1","","","0"
"2790151","2790151","Zig Zag Station Platform 1","","-33.471886","150.202141","","","0","278630","","0"
"2790152","2790152","Zig Zag Station Platform 2","","-33.471678","150.201901","","","0","278630","","0"
